{
"type": "FeatureCollection",
"crs": { "type": "name", "properties": { "name": "urn:ogc:def:crs:OGC:1.3:CRS84" } },
                                                                                
"features": [
{ "type": "Feature", "properties": { "Please_spe": "Primary Schools", "Ownership": "Private", "Name_of_in": "SENTEZA PRIMARY SCHOOL", "Contact_nu": 414599838.000000, "Year_of_op": "1992\/01\/01", "Year": 0, "Govt": 0, "Priv": 1, "Prim": 1, "Sec": 0, "Type": "Schools" }, "geometry": { "type": "Point", "coordinates": [ 32.6371, 0.312 ] } },
{ "type": "Feature", "properties": { "Please_spe": "Primary Schools", "Ownership": "Private", "Name_of_in": "Makerere Important School", "Contact_nu": 714774826.000000, "Year_of_op": "2005\/01\/16", "Year": 0, "Govt": 0, "Priv": 1, "Prim": 1, "Sec": 0, "Type": "Schools" }, "geometry": { "type": "Point", "coordinates": [ 32.5587, 0.3398 ] } },
{ "type": "Feature", "properties": { "Please_spe": "Primary Schools", "Ownership": "Private", "Name_of_in": "Nakasero Primary School", "Contact_nu": 700391041.000000, "Year_of_op": "2014\/08\/30", "Year": 0, "Govt": 0, "Priv": 1, "Prim": 1, "Sec": 0, "Type": "Schools" }, "geometry": { "type": "Point", "coordinates": [ 32.5944, 0.317 ] } },
{ "type": "Feature", "properties": { "Please_spe": "Primary Schools", "Ownership": "Government Aided", "Name_of_in": "Joy primary School", "Contact_nu": 703897069.000000, "Year_of_op": "2007\/08\/30", "Year": 0, "Govt": 1, "Priv": 0, "Prim": 1, "Sec": 0, "Type": "Schools" }, "geometry": { "type": "Point", "coordinates": [ 32.5935, 0.3202 ] } },
{ "type": "Feature", "properties": { "Please_spe": "Primary Schools", "Ownership": "Private", "Name_of_in": "BLESSED NURSERY AND PRIMARY SCHOOL", "Contact_nu": 703591053.000000, "Year_of_op": "2006\/01\/01", "Year": 0, "Govt": 0, "Priv": 1, "Prim": 1, "Sec": 0, "Type": "Schools" }, "geometry": { "type": "Point", "coordinates": [ 32.5362, 0.3381 ] } },
{ "type": "Feature", "properties": { "Please_spe": "Primary Schools", "Ownership": "Private", "Name_of_in": "NTUUYO PRIMARY SCHOOL", "Contact_nu": 414357159.000000, "Year_of_op": "1998\/07\/20", "Year": 0, "Govt": 0, "Priv": 1, "Prim": 1, "Sec": 0, "Type": "Schools" }, "geometry": { "type": "Point", "coordinates": [ 32.5784, 0.2889 ] } },
{ "type": "Feature", "properties": { "Please_spe": "Primary Schools", "Ownership": "Private", "Name_of_in": "Namuwongo islamic primary school", "Contact_nu": 414007411.000000, "Year_of_op": "1995\/02\/20", "Year": 0, "Govt": 0, "Priv": 1, "Prim": 1, "Sec": 0, "Type": "Schools" }, "geometry": { "type": "Point", "coordinates": [ 32.6078, 0.3109 ] } },
{ "type": "Feature", "properties": { "Please_spe": "Primary Schools", "Ownership": "Private", "Name_of_in": "New Kabaale Busega Primary School(Molly & Paul)", "Contact_nu": 741246476.000000, "Year_of_op": "1984\/01\/09", "Year": 0, "Govt": 0, "Priv": 1, "Prim": 1, "Sec": 0, "Type": "Schools" }, "geometry": { "type": "Point", "coordinates": [ 32.5195, 0.3126 ] } },
{ "type": "Feature", "properties": { "Please_spe": "Primary Schools", "Ownership": "Private", "Name_of_in": "Excel Junior School", "Contact_nu": 772662556.000000, "Year_of_op": "2013\/01\/19", "Year": 0, "Govt": 0, "Priv": 1, "Prim": 1, "Sec": 0, "Type": "Schools" }, "geometry": { "type": "Point", "coordinates": [ 32.5578, 0.3409 ] } },
{ "type": "Feature", "properties": { "Please_spe": "Primary Schools", "Ownership": "Private", "Name_of_in": "Winston primary school Kawempe", "Contact_nu": 41566708.000000, "Year_of_op": "1997\/02\/10", "Year": 0, "Govt": 0, "Priv": 1, "Prim": 1, "Sec": 0, "Type": "Schools" }, "geometry": { "type": "Point", "coordinates": [ 32.5658, 0.3589 ] } },
{ "type": "Feature", "properties": { "Please_spe": "Primary Schools", "Ownership": "Private", "Name_of_in": "Kasasa Junior School,Kanyanya", "Contact_nu": 712711531.000000, "Year_of_op": "2015\/02\/26", "Year": 0, "Govt": 0, "Priv": 1, "Prim": 1, "Sec": 0, "Type": "Schools" }, "geometry": { "type": "Point", "coordinates": [ 32.5785, 0.3774 ] } },
{ "type": "Feature", "properties": { "Please_spe": "Primary Schools", "Ownership": "Private", "Name_of_in": "MOTHER CARE PRIMARY SCHOOL", "Contact_nu": 772415319.000000, "Year_of_op": "2000\/02\/27", "Year": 0, "Govt": 0, "Priv": 1, "Prim": 1, "Sec": 0, "Type": "Schools" }, "geometry": { "type": "Point", "coordinates": [ 32.5841, 0.289 ] } },
{ "type": "Feature", "properties": { "Please_spe": "Primary Schools", "Ownership": "Private", "Name_of_in": "Syklight Primary School", "Contact_nu": 312276900.000000, "Year_of_op": "2007\/01\/01", "Year": 0, "Govt": 0, "Priv": 1, "Prim": 1, "Sec": 0, "Type": "Schools" }, "geometry": { "type": "Point", "coordinates": [ 32.5479, 0.3433 ] } },
{ "type": "Feature", "properties": { "Please_spe": "Primary Schools", "Ownership": "Private", "Name_of_in": "Kawaala Junior School", "Contact_nu": 773475326.000000, "Year_of_op": "1995\/01\/22", "Year": 0, "Govt": 0, "Priv": 1, "Prim": 1, "Sec": 0, "Type": "Schools" }, "geometry": { "type": "Point", "coordinates": [ 32.5559, 0.344 ] } },
{ "type": "Feature", "properties": { "Please_spe": "Primary Schools", "Ownership": "Private", "Name_of_in": "Great dreams primary school", "Contact_nu": 753093152.000000, "Year_of_op": "2005\/02\/07", "Year": 0, "Govt": 0, "Priv": 1, "Prim": 1, "Sec": 0, "Type": "Schools" }, "geometry": { "type": "Point", "coordinates": [ 32.5639, 0.2855 ] } },
{ "type": "Feature", "properties": { "Please_spe": "Primary Schools", "Ownership": "Private", "Name_of_in": "Bwaise Junior school", "Contact_nu": 755203717.000000, "Year_of_op": "2001\/02\/02", "Year": 0, "Govt": 0, "Priv": 1, "Prim": 1, "Sec": 0, "Type": "Schools" }, "geometry": { "type": "Point", "coordinates": [ 32.5623, 0.3512 ] } },
{ "type": "Feature", "properties": { "Please_spe": "Primary Schools", "Ownership": "Private", "Name_of_in": "DEMBE MODERN ECD NURSERY SCHOOL", "Contact_nu": 702634595.000000, "Year_of_op": "2000\/03\/11", "Year": 0, "Govt": 0, "Priv": 1, "Prim": 1, "Sec": 0, "Type": "Schools" }, "geometry": { "type": "Point", "coordinates": [ 32.5702, 0.2844 ] } },
{ "type": "Feature", "properties": { "Please_spe": "Primary Schools", "Ownership": "Private", "Name_of_in": "Safeway Primary school", "Contact_nu": 706581315.000000, "Year_of_op": "2012\/01\/10", "Year": 0, "Govt": 0, "Priv": 1, "Prim": 1, "Sec": 0, "Type": "Schools" }, "geometry": { "type": "Point", "coordinates": [ 32.5646, 0.3833 ] } },
{ "type": "Feature", "properties": { "Please_spe": "Primary Schools", "Ownership": "Private", "Name_of_in": "MAKINDYE MOTHERCARE PRIMARY SCHOOL", "Contact_nu": 772915319.000000, "Year_of_op": "2011\/02\/27", "Year": 0, "Govt": 0, "Priv": 1, "Prim": 1, "Sec": 0, "Type": "Schools" }, "geometry": { "type": "Point", "coordinates": [ 32.5845, 0.2888 ] } },
{ "type": "Feature", "properties": { "Please_spe": "Primary Schools", "Ownership": "Private", "Name_of_in": "Shepherds grammar primary school", "Contact_nu": 772900906.000000, "Year_of_op": "2000\/02\/04", "Year": 0, "Govt": 0, "Priv": 1, "Prim": 1, "Sec": 0, "Type": "Schools" }, "geometry": { "type": "Point", "coordinates": [ 32.5758, 0.2919 ] } },
{ "type": "Feature", "properties": { "Please_spe": "Primary Schools", "Ownership": "Private", "Name_of_in": "Little Star Primary School", "Contact_nu": 772983468.000000, "Year_of_op": "2014\/01\/01", "Year": 0, "Govt": 0, "Priv": 1, "Prim": 1, "Sec": 0, "Type": "Schools" }, "geometry": { "type": "Point", "coordinates": [ 32.5722, 0.2781 ] } },
{ "type": "Feature", "properties": { "Please_spe": "Primary Schools", "Ownership": "Private", "Name_of_in": "Madarasat Primary School", "Contact_nu": 782685734.000000, "Year_of_op": "2015\/02\/27", "Year": 0, "Govt": 0, "Priv": 1, "Prim": 1, "Sec": 0, "Type": "Schools" }, "geometry": { "type": "Point", "coordinates": [ 32.5298, 0.2997 ] } },
{ "type": "Feature", "properties": { "Please_spe": "Primary Schools", "Ownership": "Private", "Name_of_in": "The teletubbies primary school", "Contact_nu": 312285282.000000, "Year_of_op": "2012\/01\/06", "Year": 0, "Govt": 0, "Priv": 1, "Prim": 1, "Sec": 0, "Type": "Schools" }, "geometry": { "type": "Point", "coordinates": [ 32.6097, 0.2718 ] } },
{ "type": "Feature", "properties": { "Please_spe": "Primary Schools", "Ownership": "Private", "Name_of_in": "JOLLY AND LOWLY PRIMARY SCHOOL", "Contact_nu": 773402685.000000, "Year_of_op": "1994\/01\/01", "Year": 0, "Govt": 0, "Priv": 1, "Prim": 1, "Sec": 0, "Type": "Schools" }, "geometry": { "type": "Point", "coordinates": [ 32.5362, 0.3424 ] } },
{ "type": "Feature", "properties": { "Please_spe": "Primary Schools", "Ownership": "Private", "Name_of_in": "Upto date Day & Boarding Primary School", "Contact_nu": 777420636.000000, "Year_of_op": "2013\/01\/24", "Year": 0, "Govt": 0, "Priv": 1, "Prim": 1, "Sec": 0, "Type": "Schools" }, "geometry": { "type": "Point", "coordinates": [ 32.5548, 0.3446 ] } },
{ "type": "Feature", "properties": { "Please_spe": "Primary Schools", "Ownership": "Private", "Name_of_in": "St. Anthony Primary School", "Contact_nu": 775632555.000000, "Year_of_op": "2007\/01\/04", "Year": 0, "Govt": 0, "Priv": 1, "Prim": 1, "Sec": 0, "Type": "Schools" }, "geometry": { "type": "Point", "coordinates": [ 32.5737, 0.3837 ] } },
{ "type": "Feature", "properties": { "Please_spe": "Primary Schools", "Ownership": "Private", "Name_of_in": "St.Maria Gorreti Primary School Buziga", "Contact_nu": 752399633.000000, "Year_of_op": "2005\/01\/01", "Year": 0, "Govt": 0, "Priv": 1, "Prim": 1, "Sec": 0, "Type": "Schools" }, "geometry": { "type": "Point", "coordinates": [ 32.6214, 0.2496 ] } },
{ "type": "Feature", "properties": { "Please_spe": "Primary Schools", "Ownership": "Private", "Name_of_in": "Kawempe decorous primary school", "Contact_nu": 772413036.000000, "Year_of_op": "1994\/01\/01", "Year": 0, "Govt": 0, "Priv": 1, "Prim": 1, "Sec": 0, "Type": "Schools" }, "geometry": { "type": "Point", "coordinates": [ 32.5635, 0.3806 ] } },
{ "type": "Feature", "properties": { "Please_spe": "Primary Schools", "Ownership": "Private", "Name_of_in": "N'ezikookolima Morning Start Primary School", "Contact_nu": 782478173.000000, "Year_of_op": "1996\/01\/17", "Year": 0, "Govt": 0, "Priv": 1, "Prim": 1, "Sec": 0, "Type": "Schools" }, "geometry": { "type": "Point", "coordinates": [ 32.5556, 0.3427 ] } },
{ "type": "Feature", "properties": { "Please_spe": "Primary Schools", "Ownership": "Private", "Name_of_in": "MARY CHILDREN CENTER", "Contact_nu": 753250280.000000, "Year_of_op": "2003\/01\/02", "Year": 0, "Govt": 0, "Priv": 1, "Prim": 1, "Sec": 0, "Type": "Schools" }, "geometry": { "type": "Point", "coordinates": [ 32.5547, 0.3231 ] } },
{ "type": "Feature", "properties": { "Please_spe": "Primary Schools", "Ownership": "Private", "Name_of_in": "Tara Primary School", "Contact_nu": 772556648.000000, "Year_of_op": "1999\/01\/01", "Year": 0, "Govt": 0, "Priv": 1, "Prim": 1, "Sec": 0, "Type": "Schools" }, "geometry": { "type": "Point", "coordinates": [ 32.6114, 0.3037 ] } },
{ "type": "Feature", "properties": { "Please_spe": "Primary Schools", "Ownership": "Private", "Name_of_in": "test 3", "Contact_nu": 704600118.000000, "Year_of_op": "2015\/01\/29", "Year": 0, "Govt": 0, "Priv": 1, "Prim": 1, "Sec": 0, "Type": "Schools" }, "geometry": { "type": "Point", "coordinates": [ 32.5942, 0.3164 ] } },
{ "type": "Feature", "properties": { "Please_spe": "Primary Schools", "Ownership": "Private", "Name_of_in": "Yudesi Primary School", "Contact_nu": 702878324.000000, "Year_of_op": "2008\/02\/27", "Year": 0, "Govt": 0, "Priv": 1, "Prim": 1, "Sec": 0, "Type": "Schools" }, "geometry": { "type": "Point", "coordinates": [ 32.5712, 0.3472 ] } },
{ "type": "Feature", "properties": { "Please_spe": "Primary Schools", "Ownership": "Private", "Name_of_in": "Blessed Parents School", "Contact_nu": 785814272.000000, "Year_of_op": "1990\/02\/05", "Year": 0, "Govt": 0, "Priv": 1, "Prim": 1, "Sec": 0, "Type": "Schools" }, "geometry": { "type": "Point", "coordinates": [ 32.574, 0.3919 ] } },
{ "type": "Feature", "properties": { "Please_spe": "Primary Schools", "Ownership": "Government Aided", "Name_of_in": "Shimoni Deminstration School", "Contact_nu": 204660000.000000, "Year_of_op": "2007\/09\/29", "Year": 0, "Govt": 1, "Priv": 0, "Prim": 1, "Sec": 0, "Type": "Schools" }, "geometry": { "type": "Point", "coordinates": [ 32.5992, 0.336 ] } },
{ "type": "Feature", "properties": { "Please_spe": "Primary Schools", "Ownership": "Government Aided", "Name_of_in": "East Kololo Primary School", "Contact_nu": 204660000.000000, "Year_of_op": "1975\/04\/09", "Year": 0, "Govt": 1, "Priv": 0, "Prim": 1, "Sec": 0, "Type": "Schools" }, "geometry": { "type": "Point", "coordinates": [ 32.5996, 0.3359 ] } },
{ "type": "Feature", "properties": { "Please_spe": "Primary Schools", "Ownership": "Private", "Name_of_in": "Royal pride community academy", "Contact_nu": 712681395.000000, "Year_of_op": "2012\/02\/03", "Year": 0, "Govt": 0, "Priv": 1, "Prim": 1, "Sec": 0, "Type": "Schools" }, "geometry": { "type": "Point", "coordinates": [ 32.6433, 0.3275 ] } },
{ "type": "Feature", "properties": { "Please_spe": "Primary Schools", "Ownership": "Private", "Name_of_in": "Royal pride community academy", "Contact_nu": 712681395.000000, "Year_of_op": "2012\/02\/03", "Year": 0, "Govt": 0, "Priv": 1, "Prim": 1, "Sec": 0, "Type": "Schools" }, "geometry": { "type": "Point", "coordinates": [ 32.6433, 0.3275 ] } },
{ "type": "Feature", "properties": { "Please_spe": "Primary Schools", "Ownership": "Private", "Name_of_in": "Taso- Kitala Pre-Primary School", "Contact_nu": 782199856.000000, "Year_of_op": "2011\/02\/07", "Year": 0, "Govt": 0, "Priv": 1, "Prim": 1, "Sec": 0, "Type": "Schools" }, "geometry": { "type": "Point", "coordinates": [ 32.5861, 0.3787 ] } },
{ "type": "Feature", "properties": { "Please_spe": "Primary Schools", "Ownership": "Private", "Name_of_in": "Royal Hope Academy", "Contact_nu": 771828091.000000, "Year_of_op": "1999\/02\/01", "Year": 0, "Govt": 0, "Priv": 1, "Prim": 1, "Sec": 0, "Type": "Schools" }, "geometry": { "type": "Point", "coordinates": [ 32.5205, 0.3151 ] } },
{ "type": "Feature", "properties": { "Please_spe": "Primary Schools", "Ownership": "Private", "Name_of_in": "Shammah Junior School", "Contact_nu": 701554847.000000, "Year_of_op": "2011\/02\/05", "Year": 0, "Govt": 0, "Priv": 1, "Prim": 1, "Sec": 0, "Type": "Schools" }, "geometry": { "type": "Point", "coordinates": [ 32.5541, 0.3432 ] } },
{ "type": "Feature", "properties": { "Please_spe": "Primary Schools", "Ownership": "Private", "Name_of_in": "Mary Learning Centre", "Contact_nu": 772568003.000000, "Year_of_op": "2004\/02\/03", "Year": 0, "Govt": 0, "Priv": 1, "Prim": 1, "Sec": 0, "Type": "Schools" }, "geometry": { "type": "Point", "coordinates": [ 32.5548, 0.323 ] } },
{ "type": "Feature", "properties": { "Please_spe": "Primary Schools", "Ownership": "Private", "Name_of_in": "KIGOOWA INFANTS SCHOOL", "Contact_nu": 752504358.000000, "Year_of_op": "1996\/01\/01", "Year": 0, "Govt": 0, "Priv": 1, "Prim": 1, "Sec": 0, "Type": "Schools" }, "geometry": { "type": "Point", "coordinates": [ 32.6198, 0.3645 ] } },
{ "type": "Feature", "properties": { "Please_spe": "Primary Schools", "Ownership": "Private", "Name_of_in": "Tina Primary School", "Contact_nu": 782517526.000000, "Year_of_op": "2005\/01\/01", "Year": 0, "Govt": 0, "Priv": 1, "Prim": 1, "Sec": 0, "Type": "Schools" }, "geometry": { "type": "Point", "coordinates": [ 32.6259, 0.2681 ] } },
{ "type": "Feature", "properties": { "Please_spe": "Primary Schools", "Ownership": "Private", "Name_of_in": "Kitebi Bright Nursery & Primary School", "Contact_nu": 772504879.000000, "Year_of_op": "2005\/02\/07", "Year": 0, "Govt": 0, "Priv": 1, "Prim": 1, "Sec": 0, "Type": "Schools" }, "geometry": { "type": "Point", "coordinates": [ 32.5467, 0.276 ] } },
{ "type": "Feature", "properties": { "Please_spe": "Primary Schools", "Ownership": "Private", "Name_of_in": "UNCLE IGA PRIMARY SCHOOL", "Contact_nu": 782394943.000000, "Year_of_op": "1996\/01\/01", "Year": 0, "Govt": 0, "Priv": 1, "Prim": 1, "Sec": 0, "Type": "Schools" }, "geometry": { "type": "Point", "coordinates": [ 32.5511, 0.3315 ] } },
{ "type": "Feature", "properties": { "Please_spe": "Primary Schools", "Ownership": "Private", "Name_of_in": "Konge Parents' Primary School", "Contact_nu": 712834965.000000, "Year_of_op": "2006\/01\/01", "Year": 0, "Govt": 0, "Priv": 1, "Prim": 1, "Sec": 0, "Type": "Schools" }, "geometry": { "type": "Point", "coordinates": [ 32.6186, 0.2772 ] } },
{ "type": "Feature", "properties": { "Please_spe": "Primary Schools", "Ownership": "Private", "Name_of_in": "ST PAUL'S PRIMARY SCHOOL NSAMBYA", "Contact_nu": 772531853.000000, "Year_of_op": "1967\/02\/13", "Year": 0, "Govt": 0, "Priv": 1, "Prim": 1, "Sec": 0, "Type": "Schools" }, "geometry": { "type": "Point", "coordinates": [ 32.5859, 0.298 ] } },
{ "type": "Feature", "properties": { "Please_spe": "Primary Schools", "Ownership": "Private", "Name_of_in": "Excel Kalungu Primary School", "Contact_nu": 781912719.000000, "Year_of_op": "2011\/01\/01", "Year": 0, "Govt": 0, "Priv": 1, "Prim": 1, "Sec": 0, "Type": "Schools" }, "geometry": { "type": "Point", "coordinates": [ 32.6286, 0.2754 ] } },
{ "type": "Feature", "properties": { "Please_spe": "Primary Schools", "Ownership": "Private", "Name_of_in": "Sunlight primary school Kyebando", "Contact_nu": 776555167.000000, "Year_of_op": "2005\/02\/07", "Year": 0, "Govt": 0, "Priv": 1, "Prim": 1, "Sec": 0, "Type": "Schools" }, "geometry": { "type": "Point", "coordinates": [ 32.575, 0.3587 ] } },
{ "type": "Feature", "properties": { "Please_spe": "Primary Schools", "Ownership": "Private", "Name_of_in": "All Saints Junior School", "Contact_nu": 774361686.000000, "Year_of_op": "2006\/02\/03", "Year": 0, "Govt": 0, "Priv": 1, "Prim": 1, "Sec": 0, "Type": "Schools" }, "geometry": { "type": "Point", "coordinates": [ 32.6422, 0.3264 ] } },
{ "type": "Feature", "properties": { "Please_spe": "Primary Schools", "Ownership": "Private", "Name_of_in": "Tal-Aliim Primary School Kisaasi", "Contact_nu": 774010645.000000, "Year_of_op": "1999\/02\/08", "Year": 0, "Govt": 0, "Priv": 1, "Prim": 1, "Sec": 0, "Type": "Schools" }, "geometry": { "type": "Point", "coordinates": [ 32.5942, 0.3595 ] } },
{ "type": "Feature", "properties": { "Please_spe": "Primary Schools", "Ownership": "Private", "Name_of_in": "Hungry Caterpillar", "Contact_nu": 752191027.000000, "Year_of_op": "2012\/04\/05", "Year": 0, "Govt": 0, "Priv": 1, "Prim": 1, "Sec": 0, "Type": "Schools" }, "geometry": { "type": "Point", "coordinates": [ 32.5997, 0.3304 ] } },
{ "type": "Feature", "properties": { "Please_spe": "Primary Schools", "Ownership": "Private", "Name_of_in": "New Bright Angels Nursery and Primary School Kisaasi", "Contact_nu": 772561298.000000, "Year_of_op": "1997\/02\/03", "Year": 0, "Govt": 0, "Priv": 1, "Prim": 1, "Sec": 0, "Type": "Schools" }, "geometry": { "type": "Point", "coordinates": [ 32.5955, 0.3609 ] } },
{ "type": "Feature", "properties": { "Please_spe": "Primary Schools", "Ownership": "Private", "Name_of_in": "The Hungry Caterpillar", "Contact_nu": 414344224.000000, "Year_of_op": "2010\/02\/05", "Year": 0, "Govt": 0, "Priv": 1, "Prim": 1, "Sec": 0, "Type": "Schools" }, "geometry": { "type": "Point", "coordinates": [ 32.6022, 0.3317 ] } },
{ "type": "Feature", "properties": { "Please_spe": "Primary Schools", "Ownership": "Private", "Name_of_in": "Blessed Parents School", "Contact_nu": 774160146.000000, "Year_of_op": "2003\/01\/05", "Year": 0, "Govt": 0, "Priv": 1, "Prim": 1, "Sec": 0, "Type": "Schools" }, "geometry": { "type": "Point", "coordinates": [ 32.575, 0.3906 ] } },
{ "type": "Feature", "properties": { "Please_spe": "Primary Schools", "Ownership": "Government Aided", "Name_of_in": "BUKOTO MUSLIM PRIMARY SCHOOL", "Contact_nu": 772443840.000000, "Year_of_op": "1943\/01\/01", "Year": 0, "Govt": 1, "Priv": 0, "Prim": 1, "Sec": 0, "Type": "Schools" }, "geometry": { "type": "Point", "coordinates": [ 32.6085, 0.3543 ] } },
{ "type": "Feature", "properties": { "Please_spe": "Primary Schools", "Ownership": "Government Aided", "Name_of_in": "Al-Albaan Islamic  Primary School", "Contact_nu": 779826085.000000, "Year_of_op": "2010\/01\/05", "Year": 0, "Govt": 1, "Priv": 0, "Prim": 1, "Sec": 0, "Type": "Schools" }, "geometry": { "type": "Point", "coordinates": [ 32.5498, 0.3432 ] } },
{ "type": "Feature", "properties": { "Please_spe": "Primary Schools", "Ownership": "Private", "Name_of_in": "St Francis childrens centre", "Contact_nu": 772580835.000000, "Year_of_op": "2005\/02\/07", "Year": 0, "Govt": 0, "Priv": 1, "Prim": 1, "Sec": 0, "Type": "Schools" }, "geometry": { "type": "Point", "coordinates": [ 32.541, 0.2918 ] } },
{ "type": "Feature", "properties": { "Please_spe": "Primary Schools", "Ownership": "Private", "Name_of_in": "Reachout Primary School", "Contact_nu": 772462211.000000, "Year_of_op": "2000\/01\/01", "Year": 0, "Govt": 0, "Priv": 1, "Prim": 1, "Sec": 0, "Type": "Schools" }, "geometry": { "type": "Point", "coordinates": [ 32.6283, 0.2464 ] } },
{ "type": "Feature", "properties": { "Please_spe": "Primary Schools", "Ownership": "Private", "Name_of_in": "Alfred Junior Nur & Primary School", "Contact_nu": 712471295.000000, "Year_of_op": "2015\/01\/05", "Year": 0, "Govt": 0, "Priv": 1, "Prim": 1, "Sec": 0, "Type": "Schools" }, "geometry": { "type": "Point", "coordinates": [ 32.5492, 0.2747 ] } },
{ "type": "Feature", "properties": { "Please_spe": "Primary Schools", "Ownership": "Private", "Name_of_in": "Godwin's Primary School", "Contact_nu": 778542323.000000, "Year_of_op": "2010\/03\/27", "Year": 0, "Govt": 0, "Priv": 1, "Prim": 1, "Sec": 0, "Type": "Schools" }, "geometry": { "type": "Point", "coordinates": [ 32.5721, 0.3489 ] } },
{ "type": "Feature", "properties": { "Please_spe": "Primary Schools", "Ownership": "Private", "Name_of_in": "Kanyanya Junior School", "Contact_nu": 702448629.000000, "Year_of_op": "2005\/02\/07", "Year": 0, "Govt": 0, "Priv": 1, "Prim": 1, "Sec": 0, "Type": "Schools" }, "geometry": { "type": "Point", "coordinates": [ 32.5856, 0.379 ] } },
{ "type": "Feature", "properties": { "Please_spe": "Primary Schools", "Ownership": "Private", "Name_of_in": "KIBUYE JUNIOR SCHOOL", "Contact_nu": 772404787.000000, "Year_of_op": "2002\/02\/23", "Year": 0, "Govt": 0, "Priv": 1, "Prim": 1, "Sec": 0, "Type": "Schools" }, "geometry": { "type": "Point", "coordinates": [ 32.5759, 0.2944 ] } },
{ "type": "Feature", "properties": { "Please_spe": "Primary Schools", "Ownership": "Private", "Name_of_in": "Otters den primary school", "Contact_nu": 772333278.000000, "Year_of_op": "2015\/02\/17", "Year": 0, "Govt": 0, "Priv": 1, "Prim": 1, "Sec": 0, "Type": "Schools" }, "geometry": { "type": "Point", "coordinates": [ 32.6039, 0.2865 ] } },
{ "type": "Feature", "properties": { "Please_spe": "Primary Schools", "Ownership": "Government Aided", "Name_of_in": "Mpererwe Primary School", "Contact_nu": 704447292.000000, "Year_of_op": "1940\/02\/05", "Year": 0, "Govt": 1, "Priv": 0, "Prim": 1, "Sec": 0, "Type": "Schools" }, "geometry": { "type": "Point", "coordinates": [ 32.5752, 0.3908 ] } },
{ "type": "Feature", "properties": { "Please_spe": "Primary Schools", "Ownership": "Private", "Name_of_in": "Muteesa 2 memorial primary school", "Contact_nu": 712949061.000000, "Year_of_op": "1989\/05\/10", "Year": 0, "Govt": 0, "Priv": 1, "Prim": 1, "Sec": 0, "Type": "Schools" }, "geometry": { "type": "Point", "coordinates": [ 32.5422, 0.2862 ] } },
{ "type": "Feature", "properties": { "Please_spe": "Primary Schools", "Ownership": "Private", "Name_of_in": "KATWE MODEL PRIMARY SCHOOL", "Contact_nu": 782139256.000000, "Year_of_op": "2000\/02\/23", "Year": 0, "Govt": 0, "Priv": 1, "Prim": 1, "Sec": 0, "Type": "Schools" }, "geometry": { "type": "Point", "coordinates": [ 32.5761, 0.2946 ] } },
{ "type": "Feature", "properties": { "Please_spe": "Primary Schools", "Ownership": "Private", "Name_of_in": "Real Quality primary school", "Contact_nu": 778845649.000000, "Year_of_op": "2015\/01\/05", "Year": 0, "Govt": 0, "Priv": 1, "Prim": 1, "Sec": 0, "Type": "Schools" }, "geometry": { "type": "Point", "coordinates": [ 32.5608, 0.3825 ] } },
{ "type": "Feature", "properties": { "Please_spe": "Primary Schools", "Ownership": "Private", "Name_of_in": "Daffodils Primary School", "Contact_nu": 717251864.000000, "Year_of_op": "1999\/04\/07", "Year": 0, "Govt": 0, "Priv": 1, "Prim": 1, "Sec": 0, "Type": "Schools" }, "geometry": { "type": "Point", "coordinates": [ 32.5912, 0.3402 ] } },
{ "type": "Feature", "properties": { "Please_spe": "Primary Schools", "Ownership": "Private", "Name_of_in": "NAGURU INFANT PRIMARY SCHOOL", "Contact_nu": 392969613.000000, "Year_of_op": "1970\/01\/01", "Year": 0, "Govt": 0, "Priv": 1, "Prim": 1, "Sec": 0, "Type": "Schools" }, "geometry": { "type": "Point", "coordinates": [ 32.6105, 0.3309 ] } },
{ "type": "Feature", "properties": { "Please_spe": "Primary Schools", "Ownership": "Private", "Name_of_in": "St.Benedict Primary School", "Contact_nu": 3142513457.000000, "Year_of_op": "2006\/01\/01", "Year": 0, "Govt": 0, "Priv": 1, "Prim": 1, "Sec": 0, "Type": "Schools" }, "geometry": { "type": "Point", "coordinates": [ 32.6027, 0.2591 ] } },
{ "type": "Feature", "properties": { "Please_spe": "Primary Schools", "Ownership": "Private", "Name_of_in": "Shammah Primary School Bung", "Contact_nu": 7730785521.000000, "Year_of_op": "2007\/01\/01", "Year": 0, "Govt": 0, "Priv": 1, "Prim": 1, "Sec": 0, "Type": "Schools" }, "geometry": { "type": "Point", "coordinates": [ 32.6265, 0.2667 ] } },
{ "type": "Feature", "properties": { "Please_spe": "Primary Schools", "Ownership": "Private", "Name_of_in": "Nateete Preparatory School", "Contact_nu": 782491862.000000, "Year_of_op": "1993\/03\/12", "Year": 0, "Govt": 0, "Priv": 1, "Prim": 1, "Sec": 0, "Type": "Schools" }, "geometry": { "type": "Point", "coordinates": [ 32.534, 0.3029 ] } },
{ "type": "Feature", "properties": { "Please_spe": "Primary Schools", "Ownership": "Private", "Name_of_in": "Luwafu parents primary school", "Contact_nu": 752643150.000000, "Year_of_op": "2005\/01\/03", "Year": 0, "Govt": 0, "Priv": 1, "Prim": 1, "Sec": 0, "Type": "Schools" }, "geometry": { "type": "Point", "coordinates": [ 32.5812, 0.2758 ] } },
{ "type": "Feature", "properties": { "Please_spe": "Primary Schools", "Ownership": "Private", "Name_of_in": "Kawthara Bukoto Quran School", "Contact_nu": 785783351.000000, "Year_of_op": "2003\/01\/18", "Year": 0, "Govt": 0, "Priv": 1, "Prim": 1, "Sec": 0, "Type": "Schools" }, "geometry": { "type": "Point", "coordinates": [ 32.5966, 0.3521 ] } },
{ "type": "Feature", "properties": { "Please_spe": "Primary Schools", "Ownership": "Government Aided", "Name_of_in": "Hajara Islamic school", "Contact_nu": 702795590.000000, "Year_of_op": "2000\/02\/07", "Year": 0, "Govt": 1, "Priv": 0, "Prim": 1, "Sec": 0, "Type": "Schools" }, "geometry": { "type": "Point", "coordinates": [ 32.5752, 0.3619 ] } },
{ "type": "Feature", "properties": { "Please_spe": "Primary Schools", "Ownership": "Private", "Name_of_in": "Mild Care Parents school", "Contact_nu": 772488896.000000, "Year_of_op": "1999\/02\/21", "Year": 0, "Govt": 0, "Priv": 1, "Prim": 1, "Sec": 0, "Type": "Schools" }, "geometry": { "type": "Point", "coordinates": [ 32.612, 0.2467 ] } },
{ "type": "Feature", "properties": { "Please_spe": "Primary Schools", "Ownership": "Private", "Name_of_in": "KIBUYE PARENTS PRIMARY SCHOOL", "Contact_nu": 788391824.000000, "Year_of_op": "1999\/02\/23", "Year": 0, "Govt": 0, "Priv": 1, "Prim": 1, "Sec": 0, "Type": "Schools" }, "geometry": { "type": "Point", "coordinates": [ 32.5778, 0.296 ] } },
{ "type": "Feature", "properties": { "Please_spe": "Primary Schools", "Ownership": "Private", "Name_of_in": "St Peter Claver  Primary School", "Contact_nu": 772408979.000000, "Year_of_op": "1994\/03\/12", "Year": 0, "Govt": 0, "Priv": 1, "Prim": 1, "Sec": 0, "Type": "Schools" }, "geometry": { "type": "Point", "coordinates": [ 32.5504, 0.3361 ] } },
{ "type": "Feature", "properties": { "Please_spe": "Primary Schools", "Ownership": "Private", "Name_of_in": "Lohana Academy", "Contact_nu": 414345214.000000, "Year_of_op": "1957\/12\/05", "Year": 0, "Govt": 0, "Priv": 1, "Prim": 1, "Sec": 0, "Type": "Schools" }, "geometry": { "type": "Point", "coordinates": [ 32.5896, 0.3392 ] } },
{ "type": "Feature", "properties": { "Please_spe": "Primary Schools", "Ownership": "Private", "Name_of_in": "St.augastine Montessori primary school", "Contact_nu": 1.000000, "Year_of_op": "2005\/02\/23", "Year": 0, "Govt": 0, "Priv": 1, "Prim": 1, "Sec": 0, "Type": "Schools" }, "geometry": { "type": "Point", "coordinates": [ 32.6192, 0.2717 ] } },
{ "type": "Feature", "properties": { "Please_spe": "Primary Schools", "Ownership": "Private", "Name_of_in": "Bridges Infant School Kikaaya", "Contact_nu": 758847938.000000, "Year_of_op": "2014\/02\/10", "Year": 0, "Govt": 0, "Priv": 1, "Prim": 1, "Sec": 0, "Type": "Schools" }, "geometry": { "type": "Point", "coordinates": [ 32.5883, 0.3737 ] } },
{ "type": "Feature", "properties": { "Please_spe": "Primary Schools", "Ownership": "Private", "Name_of_in": "Goodlife Junior School Kitala", "Contact_nu": 753796509.000000, "Year_of_op": "2013\/02\/18", "Year": 0, "Govt": 0, "Priv": 1, "Prim": 1, "Sec": 0, "Type": "Schools" }, "geometry": { "type": "Point", "coordinates": [ 32.5892, 0.373 ] } },
{ "type": "Feature", "properties": { "Please_spe": "Primary Schools", "Ownership": "Private", "Name_of_in": "ST.MBUGA PRIMARY SCHOOL-MAKINDYE", "Contact_nu": 772650153.000000, "Year_of_op": "1988\/02\/15", "Year": 0, "Govt": 0, "Priv": 1, "Prim": 1, "Sec": 0, "Type": "Schools" }, "geometry": { "type": "Point", "coordinates": [ 32.5876, 0.2899 ] } },
{ "type": "Feature", "properties": { "Please_spe": "Primary Schools", "Ownership": "Private", "Name_of_in": "Makindye junior academy primary", "Contact_nu": 1.000000, "Year_of_op": "2000\/01\/02", "Year": 0, "Govt": 0, "Priv": 1, "Prim": 1, "Sec": 0, "Type": "Schools" }, "geometry": { "type": "Point", "coordinates": [ 32.5814, 0.2749 ] } },
{ "type": "Feature", "properties": { "Please_spe": "Primary Schools", "Ownership": "Private", "Name_of_in": "Busega Miracle Orphanage Primary School", "Contact_nu": 752347586.000000, "Year_of_op": "2003\/02\/03", "Year": 0, "Govt": 0, "Priv": 1, "Prim": 1, "Sec": 0, "Type": "Schools" }, "geometry": { "type": "Point", "coordinates": [ 32.522, 0.3112 ] } },
{ "type": "Feature", "properties": { "Please_spe": "Primary Schools", "Ownership": "Private", "Name_of_in": "Mbuya Parents School", "Contact_nu": 776522987.000000, "Year_of_op": "2002\/02\/02", "Year": 0, "Govt": 0, "Priv": 1, "Prim": 1, "Sec": 0, "Type": "Schools" }, "geometry": { "type": "Point", "coordinates": [ 32.636, 0.3274 ] } },
{ "type": "Feature", "properties": { "Please_spe": "Primary Schools", "Ownership": "Private", "Name_of_in": "Takuba primary school", "Contact_nu": 414267970.000000, "Year_of_op": "2000\/02\/07", "Year": 0, "Govt": 0, "Priv": 1, "Prim": 1, "Sec": 0, "Type": "Schools" }, "geometry": { "type": "Point", "coordinates": [ 32.5652, 0.3651 ] } },
{ "type": "Feature", "properties": { "Please_spe": "Primary Schools", "Ownership": "Private", "Name_of_in": "Step By Step Infant School", "Contact_nu": 774810862.000000, "Year_of_op": "2010\/02\/08", "Year": 0, "Govt": 0, "Priv": 1, "Prim": 1, "Sec": 0, "Type": "Schools" }, "geometry": { "type": "Point", "coordinates": [ 32.5978, 0.3802 ] } },
{ "type": "Feature", "properties": { "Please_spe": "Primary Schools", "Ownership": "Private", "Name_of_in": "St.Mary's Nursery & Pri School", "Contact_nu": 704943822.000000, "Year_of_op": "2015\/02\/02", "Year": 0, "Govt": 0, "Priv": 1, "Prim": 1, "Sec": 0, "Type": "Schools" }, "geometry": { "type": "Point", "coordinates": [ 32.5479, 0.2743 ] } },
{ "type": "Feature", "properties": { "Please_spe": "Primary Schools", "Ownership": "Private", "Name_of_in": "Treeshade primary school", "Contact_nu": 772839603.000000, "Year_of_op": "1994\/01\/01", "Year": 0, "Govt": 0, "Priv": 1, "Prim": 1, "Sec": 0, "Type": "Schools" }, "geometry": { "type": "Point", "coordinates": [ 32.6362, 0.3235 ] } },
{ "type": "Feature", "properties": { "Please_spe": "Primary Schools", "Ownership": "Private", "Name_of_in": "Bright Future Children Primary School", "Contact_nu": 772629594.000000, "Year_of_op": "1999\/02\/17", "Year": 0, "Govt": 0, "Priv": 1, "Prim": 1, "Sec": 0, "Type": "Schools" }, "geometry": { "type": "Point", "coordinates": [ 32.5591, 0.3833 ] } },
{ "type": "Feature", "properties": { "Please_spe": "Primary Schools", "Ownership": "Private", "Name_of_in": "Depford Green Community School", "Contact_nu": 701907748.000000, "Year_of_op": "2009\/02\/02", "Year": 0, "Govt": 0, "Priv": 1, "Prim": 1, "Sec": 0, "Type": "Schools" }, "geometry": { "type": "Point", "coordinates": [ 32.5218, 0.3104 ] } },
{ "type": "Feature", "properties": { "Please_spe": "Primary Schools", "Ownership": "Private", "Name_of_in": "FROEBEL PRIMARY & KINDERGARTEN SCHOOL", "Contact_nu": 781526041.000000, "Year_of_op": "1990\/01\/01", "Year": 0, "Govt": 0, "Priv": 1, "Prim": 1, "Sec": 0, "Type": "Schools" }, "geometry": { "type": "Point", "coordinates": [ 32.6047, 0.3538 ] } },
{ "type": "Feature", "properties": { "Please_spe": "Primary Schools", "Ownership": "Private", "Name_of_in": "DINADONA PREPARATORY SCHOOL", "Contact_nu": 414540455.000000, "Year_of_op": "1993\/01\/01", "Year": 0, "Govt": 0, "Priv": 1, "Prim": 1, "Sec": 0, "Type": "Schools" }, "geometry": { "type": "Point", "coordinates": [ 32.5518, 0.3298 ] } },
{ "type": "Feature", "properties": { "Please_spe": "Primary Schools", "Ownership": "Private", "Name_of_in": "Garfield Nursery and Primary School", "Contact_nu": 701032197.000000, "Year_of_op": "2011\/02\/14", "Year": 0, "Govt": 0, "Priv": 1, "Prim": 1, "Sec": 0, "Type": "Schools" }, "geometry": { "type": "Point", "coordinates": [ 32.584, 0.3788 ] } },
{ "type": "Feature", "properties": { "Please_spe": "Primary Schools", "Ownership": "Private", "Name_of_in": "Precious children centre", "Contact_nu": 705189758.000000, "Year_of_op": "2010\/02\/15", "Year": 0, "Govt": 0, "Priv": 1, "Prim": 1, "Sec": 0, "Type": "Schools" }, "geometry": { "type": "Point", "coordinates": [ 32.5694, 0.3627 ] } },
{ "type": "Feature", "properties": { "Please_spe": "Primary Schools", "Ownership": "Private", "Name_of_in": "Pearl Infants School", "Contact_nu": 701809137.000000, "Year_of_op": "2015\/02\/02", "Year": 0, "Govt": 0, "Priv": 1, "Prim": 1, "Sec": 0, "Type": "Schools" }, "geometry": { "type": "Point", "coordinates": [ 32.5448, 0.2787 ] } },
{ "type": "Feature", "properties": { "Please_spe": "Primary Schools", "Ownership": "Private", "Name_of_in": "Bright Junior Primary School Kisaasi", "Contact_nu": 701980034.000000, "Year_of_op": "2010\/02\/08", "Year": 0, "Govt": 0, "Priv": 1, "Prim": 1, "Sec": 0, "Type": "Schools" }, "geometry": { "type": "Point", "coordinates": [ 32.5963, 0.3775 ] } },
{ "type": "Feature", "properties": { "Please_spe": "Primary Schools", "Ownership": "Private", "Name_of_in": "Makindye citizen primary school", "Contact_nu": 772710994.000000, "Year_of_op": "2004\/02\/12", "Year": 0, "Govt": 0, "Priv": 1, "Prim": 1, "Sec": 0, "Type": "Schools" }, "geometry": { "type": "Point", "coordinates": [ 32.5975, 0.2641 ] } },
{ "type": "Feature", "properties": { "Please_spe": "Primary Schools", "Ownership": "Government Aided", "Name_of_in": "Queen of Peace( Lubaga girls) primary school", "Contact_nu": 772955992.000000, "Year_of_op": "1905\/02\/06", "Year": 0, "Govt": 1, "Priv": 0, "Prim": 1, "Sec": 0, "Type": "Schools" }, "geometry": { "type": "Point", "coordinates": [ 32.5519, 0.3045 ] } },
{ "type": "Feature", "properties": { "Please_spe": "Primary Schools", "Ownership": "Private", "Name_of_in": "Bright Angels Infant School Primary", "Contact_nu": 774180492.000000, "Year_of_op": "2004\/01\/01", "Year": 0, "Govt": 0, "Priv": 1, "Prim": 1, "Sec": 0, "Type": "Schools" }, "geometry": { "type": "Point", "coordinates": [ 32.6146, 0.245 ] } },
{ "type": "Feature", "properties": { "Please_spe": "Primary Schools", "Ownership": "Private", "Name_of_in": "t5KASUBI MODERN ISLAMIC PRIMARY SCHOOL", "Contact_nu": 772540927.000000, "Year_of_op": "1970\/01\/01", "Year": 0, "Govt": 0, "Priv": 1, "Prim": 1, "Sec": 0, "Type": "Schools" }, "geometry": { "type": "Point", "coordinates": [ 32.5525, 0.3286 ] } },
{ "type": "Feature", "properties": { "Please_spe": "Primary Schools", "Ownership": "Private", "Name_of_in": "MAKAMU JUNIOR SCHOOL - PRIMARY", "Contact_nu": 782344405.000000, "Year_of_op": "2010\/01\/11", "Year": 0, "Govt": 0, "Priv": 1, "Prim": 1, "Sec": 0, "Type": "Schools" }, "geometry": { "type": "Point", "coordinates": [ 32.5688, 0.2839 ] } },
{ "type": "Feature", "properties": { "Please_spe": "Primary Schools", "Ownership": "Private", "Name_of_in": "Bright Day and Boarding primary school", "Contact_nu": 786059078.000000, "Year_of_op": "1991\/02\/01", "Year": 0, "Govt": 0, "Priv": 1, "Prim": 1, "Sec": 0, "Type": "Schools" }, "geometry": { "type": "Point", "coordinates": [ 32.5597, 0.3598 ] } },
{ "type": "Feature", "properties": { "Please_spe": "Primary Schools", "Ownership": "Private", "Name_of_in": "Palace View Primary School Kanyanya", "Contact_nu": 782627205.000000, "Year_of_op": "1998\/02\/09", "Year": 0, "Govt": 0, "Priv": 1, "Prim": 1, "Sec": 0, "Type": "Schools" }, "geometry": { "type": "Point", "coordinates": [ 32.5823, 0.3772 ] } },
{ "type": "Feature", "properties": { "Please_spe": "Primary Schools", "Ownership": "Private", "Name_of_in": "Rivers of mercy junior school", "Contact_nu": 759592360.000000, "Year_of_op": "2010\/02\/08", "Year": 0, "Govt": 0, "Priv": 1, "Prim": 1, "Sec": 0, "Type": "Schools" }, "geometry": { "type": "Point", "coordinates": [ 32.5571, 0.2914 ] } },
{ "type": "Feature", "properties": { "Please_spe": "Primary Schools", "Ownership": "Private", "Name_of_in": "Red rock Junior school", "Contact_nu": 756777593.000000, "Year_of_op": "2010\/02\/08", "Year": 0, "Govt": 0, "Priv": 1, "Prim": 1, "Sec": 0, "Type": "Schools" }, "geometry": { "type": "Point", "coordinates": [ 32.5504, 0.3056 ] } },
{ "type": "Feature", "properties": { "Please_spe": "Primary Schools", "Ownership": "Private", "Name_of_in": "WINSTON STARNDARD PRIMARY SCHOOL", "Contact_nu": 414269504.000000, "Year_of_op": "2002\/02\/12", "Year": 0, "Govt": 0, "Priv": 1, "Prim": 1, "Sec": 0, "Type": "Schools" }, "geometry": { "type": "Point", "coordinates": [ 32.5682, 0.2841 ] } },
{ "type": "Feature", "properties": { "Please_spe": "Primary Schools", "Ownership": "Private", "Name_of_in": "Tim & Joy Primary School", "Contact_nu": 752822212.000000, "Year_of_op": "2010\/02\/01", "Year": 0, "Govt": 0, "Priv": 1, "Prim": 1, "Sec": 0, "Type": "Schools" }, "geometry": { "type": "Point", "coordinates": [ 32.5192, 0.3055 ] } },
{ "type": "Feature", "properties": { "Please_spe": "Primary Schools", "Ownership": "Private", "Name_of_in": "Global primary school Kawempe", "Contact_nu": 782169134.000000, "Year_of_op": "2012\/02\/13", "Year": 0, "Govt": 0, "Priv": 1, "Prim": 1, "Sec": 0, "Type": "Schools" }, "geometry": { "type": "Point", "coordinates": [ 32.5696, 0.3608 ] } },
{ "type": "Feature", "properties": { "Please_spe": "Primary Schools", "Ownership": "Private", "Name_of_in": "lugoba primary school", "Contact_nu": 705007636.000000, "Year_of_op": "2005\/02\/07", "Year": 0, "Govt": 0, "Priv": 1, "Prim": 1, "Sec": 0, "Type": "Schools" }, "geometry": { "type": "Point", "coordinates": [ 32.5516, 0.3742 ] } },
{ "type": "Feature", "properties": { "Please_spe": "Primary Schools", "Ownership": "Private", "Name_of_in": "SunRise Infant & Pri School", "Contact_nu": 774154509.000000, "Year_of_op": "2005\/02\/14", "Year": 0, "Govt": 0, "Priv": 1, "Prim": 1, "Sec": 0, "Type": "Schools" }, "geometry": { "type": "Point", "coordinates": [ 32.5507, 0.2801 ] } },
{ "type": "Feature", "properties": { "Please_spe": "Primary Schools", "Ownership": "Private", "Name_of_in": "MAKINDYE JUNIOR SCHOOL- BOARDING", "Contact_nu": 782230090.000000, "Year_of_op": "2000\/02\/27", "Year": 0, "Govt": 0, "Priv": 1, "Prim": 1, "Sec": 0, "Type": "Schools" }, "geometry": { "type": "Point", "coordinates": [ 32.5865, 0.2824 ] } },
{ "type": "Feature", "properties": { "Please_spe": "Primary Schools", "Ownership": "Government Aided", "Name_of_in": "Kisaasi Primary School", "Contact_nu": 772499329.000000, "Year_of_op": "1954\/02\/08", "Year": 0, "Govt": 1, "Priv": 0, "Prim": 1, "Sec": 0, "Type": "Schools" }, "geometry": { "type": "Point", "coordinates": [ 32.598, 0.3767 ] } },
{ "type": "Feature", "properties": { "Please_spe": "Primary Schools", "Ownership": "Private", "Name_of_in": "Nateete Junior School", "Contact_nu": 701470470.000000, "Year_of_op": "2000\/02\/07", "Year": 0, "Govt": 0, "Priv": 1, "Prim": 1, "Sec": 0, "Type": "Schools" }, "geometry": { "type": "Point", "coordinates": [ 32.536, 0.3108 ] } },
{ "type": "Feature", "properties": { "Please_spe": "Primary Schools", "Ownership": "Private", "Name_of_in": "New Era Primary School", "Contact_nu": 774414481.000000, "Year_of_op": "2013\/02\/11", "Year": 0, "Govt": 0, "Priv": 1, "Prim": 1, "Sec": 0, "Type": "Schools" }, "geometry": { "type": "Point", "coordinates": [ 32.5397, 0.3156 ] } },
{ "type": "Feature", "properties": { "Please_spe": "Primary Schools", "Ownership": "Private", "Name_of_in": "SHOMA CHRISTIAN ACADEMY", "Contact_nu": 772387590.000000, "Year_of_op": "2015\/02\/02", "Year": 0, "Govt": 0, "Priv": 1, "Prim": 1, "Sec": 0, "Type": "Schools" }, "geometry": { "type": "Point", "coordinates": [ 32.6104, 0.3557 ] } },
{ "type": "Feature", "properties": { "Please_spe": "Primary Schools", "Ownership": "Private", "Name_of_in": "Sir Apollo Kaggwa Primary School", "Contact_nu": 414270299.000000, "Year_of_op": "1990\/02\/03", "Year": 0, "Govt": 0, "Priv": 1, "Prim": 1, "Sec": 0, "Type": "Schools" }, "geometry": { "type": "Point", "coordinates": [ 32.5565, 0.3095 ] } },
{ "type": "Feature", "properties": { "Please_spe": "Primary Schools", "Ownership": "Private", "Name_of_in": "Rev.John foundation primary", "Contact_nu": 753910840.000000, "Year_of_op": "1989\/01\/01", "Year": 0, "Govt": 0, "Priv": 1, "Prim": 1, "Sec": 0, "Type": "Schools" }, "geometry": { "type": "Point", "coordinates": [ 32.6358, 0.316 ] } },
{ "type": "Feature", "properties": { "Please_spe": "Primary Schools", "Ownership": "Private", "Name_of_in": "St Andrew primary school", "Contact_nu": 703364921.000000, "Year_of_op": "2002\/02\/04", "Year": 0, "Govt": 0, "Priv": 1, "Prim": 1, "Sec": 0, "Type": "Schools" }, "geometry": { "type": "Point", "coordinates": [ 32.5421, 0.2886 ] } },
{ "type": "Feature", "properties": { "Please_spe": "Primary Schools", "Ownership": "Government Aided", "Name_of_in": "Kasubi Family  Primary School", "Contact_nu": 774009864.000000, "Year_of_op": "1955\/03\/12", "Year": 0, "Govt": 1, "Priv": 0, "Prim": 1, "Sec": 0, "Type": "Schools" }, "geometry": { "type": "Point", "coordinates": [ 32.5541, 0.3328 ] } },
{ "type": "Feature", "properties": { "Please_spe": "Primary Schools", "Ownership": "Private", "Name_of_in": "Amka Classic School", "Contact_nu": 414223165.000000, "Year_of_op": "1991\/01\/01", "Year": 0, "Govt": 0, "Priv": 1, "Prim": 1, "Sec": 0, "Type": "Schools" }, "geometry": { "type": "Point", "coordinates": [ 32.6392, 0.3207 ] } },
{ "type": "Feature", "properties": { "Please_spe": "Primary Schools", "Ownership": "Private", "Name_of_in": "St Charles Lwanga Primary School", "Contact_nu": 773348465.000000, "Year_of_op": "1992\/02\/10", "Year": 0, "Govt": 0, "Priv": 1, "Prim": 1, "Sec": 0, "Type": "Schools" }, "geometry": { "type": "Point", "coordinates": [ 32.5817, 0.3809 ] } },
{ "type": "Feature", "properties": { "Please_spe": "Primary Schools", "Ownership": "Private", "Name_of_in": "Kisaakye Primary School", "Contact_nu": 772660150.000000, "Year_of_op": "2009\/02\/02", "Year": 0, "Govt": 0, "Priv": 1, "Prim": 1, "Sec": 0, "Type": "Schools" }, "geometry": { "type": "Point", "coordinates": [ 32.556, 0.3086 ] } },
{ "type": "Feature", "properties": { "Please_spe": "Primary Schools", "Ownership": "Private", "Name_of_in": "Splendor Junior School Kisaasi", "Contact_nu": 414379979.000000, "Year_of_op": "2010\/02\/08", "Year": 0, "Govt": 0, "Priv": 1, "Prim": 1, "Sec": 0, "Type": "Schools" }, "geometry": { "type": "Point", "coordinates": [ 32.5964, 0.3721 ] } },
{ "type": "Feature", "properties": { "Please_spe": "Primary Schools", "Ownership": "Government Aided", "Name_of_in": "kitebi primary school", "Contact_nu": 204660000.000000, "Year_of_op": "1942\/01\/01", "Year": 0, "Govt": 1, "Priv": 0, "Prim": 1, "Sec": 0, "Type": "Schools" }, "geometry": { "type": "Point", "coordinates": [ 32.5462, 0.2833 ] } },
{ "type": "Feature", "properties": { "Please_spe": "Primary Schools", "Ownership": "Private", "Name_of_in": "Lugogo Junior Academy", "Contact_nu": 782127976.000000, "Year_of_op": "1967\/03\/08", "Year": 0, "Govt": 0, "Priv": 1, "Prim": 1, "Sec": 0, "Type": "Schools" }, "geometry": { "type": "Point", "coordinates": [ 32.6038, 0.3283 ] } },
{ "type": "Feature", "properties": { "Please_spe": "Primary Schools", "Ownership": "Private", "Name_of_in": "Busega Preparatory School", "Contact_nu": 772595097.000000, "Year_of_op": "1989\/02\/06", "Year": 0, "Govt": 0, "Priv": 1, "Prim": 1, "Sec": 0, "Type": "Schools" }, "geometry": { "type": "Point", "coordinates": [ 32.5157, 0.3057 ] } },
{ "type": "Feature", "properties": { "Please_spe": "Primary Schools", "Ownership": "Private", "Name_of_in": "Genesi nursery & primary day& boarding school mutungo", "Contact_nu": 772410410.000000, "Year_of_op": "1997\/02\/04", "Year": 0, "Govt": 0, "Priv": 1, "Prim": 1, "Sec": 0, "Type": "Schools" }, "geometry": { "type": "Point", "coordinates": [ 32.6409, 0.3205 ] } },
{ "type": "Feature", "properties": { "Please_spe": "Primary Schools", "Ownership": "Private", "Name_of_in": "RED STARS NURSERY AND PRIMARY SCHOOL", "Contact_nu": 414670711.000000, "Year_of_op": "2002\/01\/01", "Year": 0, "Govt": 0, "Priv": 1, "Prim": 1, "Sec": 0, "Type": "Schools" }, "geometry": { "type": "Point", "coordinates": [ 32.5504, 0.3316 ] } },
{ "type": "Feature", "properties": { "Please_spe": "Primary Schools", "Ownership": "Government Aided", "Name_of_in": "KCCA Busega Community Primary School", "Contact_nu": 752655730.000000, "Year_of_op": "1992\/02\/03", "Year": 0, "Govt": 1, "Priv": 0, "Prim": 1, "Sec": 0, "Type": "Schools" }, "geometry": { "type": "Point", "coordinates": [ 32.5323, 0.3133 ] } },
{ "type": "Feature", "properties": { "Please_spe": "Primary Schools", "Ownership": "Private", "Name_of_in": "APCPD Integrated Primary School", "Contact_nu": 772391064.000000, "Year_of_op": "1994\/02\/23", "Year": 0, "Govt": 0, "Priv": 1, "Prim": 1, "Sec": 0, "Type": "Schools" }, "geometry": { "type": "Point", "coordinates": [ 32.5745, 0.344 ] } },
{ "type": "Feature", "properties": { "Please_spe": "Primary Schools", "Ownership": "Private", "Name_of_in": "TLC PRIMARY SCHOOL", "Contact_nu": 754628982.000000, "Year_of_op": "2015\/01\/26", "Year": 0, "Govt": 0, "Priv": 1, "Prim": 1, "Sec": 0, "Type": "Schools" }, "geometry": { "type": "Point", "coordinates": [ 32.5925, 0.2864 ] } },
{ "type": "Feature", "properties": { "Please_spe": "Primary Schools", "Ownership": "Private", "Name_of_in": "KATWE NOOR PRIMARY SCHOOL", "Contact_nu": 701157155.000000, "Year_of_op": "1962\/02\/23", "Year": 0, "Govt": 0, "Priv": 1, "Prim": 1, "Sec": 0, "Type": "Schools" }, "geometry": { "type": "Point", "coordinates": [ 32.5762, 0.2993 ] } },
{ "type": "Feature", "properties": { "Please_spe": "Primary Schools", "Ownership": "Private", "Name_of_in": "Ecole Francaise ,French School", "Contact_nu": 414341660.000000, "Year_of_op": "1975\/04\/07", "Year": 0, "Govt": 0, "Priv": 1, "Prim": 1, "Sec": 0, "Type": "Schools" }, "geometry": { "type": "Point", "coordinates": [ 32.6031, 0.3288 ] } },
{ "type": "Feature", "properties": { "Please_spe": "Primary Schools", "Ownership": "Private", "Name_of_in": "Hope Infant school", "Contact_nu": 752526165.000000, "Year_of_op": "2000\/02\/07", "Year": 0, "Govt": 0, "Priv": 1, "Prim": 1, "Sec": 0, "Type": "Schools" }, "geometry": { "type": "Point", "coordinates": [ 32.5643, 0.3652 ] } },
{ "type": "Feature", "properties": { "Please_spe": "Primary Schools", "Ownership": "Private", "Name_of_in": "MAKINDYE JUNIOR DAY SCHOOL", "Contact_nu": 773284595.000000, "Year_of_op": "2015\/01\/15", "Year": 0, "Govt": 0, "Priv": 1, "Prim": 1, "Sec": 0, "Type": "Schools" }, "geometry": { "type": "Point", "coordinates": [ 32.586, 0.2829 ] } },
{ "type": "Feature", "properties": { "Please_spe": "Primary Schools", "Ownership": "Private", "Name_of_in": "GRACE PRIMARY AND NURSERY SCHOOL", "Contact_nu": 781453600.000000, "Year_of_op": "2010\/01\/01", "Year": 0, "Govt": 0, "Priv": 1, "Prim": 1, "Sec": 0, "Type": "Schools" }, "geometry": { "type": "Point", "coordinates": [ 32.6097, 0.3614 ] } },
{ "type": "Feature", "properties": { "Please_spe": "Primary Schools", "Ownership": "Private", "Name_of_in": "Exodus pre_primary school", "Contact_nu": 775855095.000000, "Year_of_op": "2013\/02\/05", "Year": 0, "Govt": 0, "Priv": 1, "Prim": 1, "Sec": 0, "Type": "Schools" }, "geometry": { "type": "Point", "coordinates": [ 32.6383, 0.3241 ] } },
{ "type": "Feature", "properties": { "Please_spe": "Primary Schools", "Ownership": "Private", "Name_of_in": "Riverside Primary School", "Contact_nu": 700206869.000000, "Year_of_op": "2012\/02\/06", "Year": 0, "Govt": 0, "Priv": 1, "Prim": 1, "Sec": 0, "Type": "Schools" }, "geometry": { "type": "Point", "coordinates": [ 32.5347, 0.3128 ] } },
{ "type": "Feature", "properties": { "Please_spe": "Primary Schools", "Ownership": "Government Aided", "Name_of_in": "KASUBI CHURCH OF UGANDA PRIMARY SCHOOL", "Contact_nu": 752629961.000000, "Year_of_op": "1936\/01\/01", "Year": 0, "Govt": 1, "Priv": 0, "Prim": 1, "Sec": 0, "Type": "Schools" }, "geometry": { "type": "Point", "coordinates": [ 32.5517, 0.329 ] } },
{ "type": "Feature", "properties": { "Please_spe": "Primary Schools", "Ownership": "Private", "Name_of_in": "Mustapha Juniour & Primary School", "Contact_nu": 712920212.000000, "Year_of_op": "2000\/02\/07", "Year": 0, "Govt": 0, "Priv": 1, "Prim": 1, "Sec": 0, "Type": "Schools" }, "geometry": { "type": "Point", "coordinates": [ 32.549, 0.28 ] } },
{ "type": "Feature", "properties": { "Please_spe": "Primary Schools", "Ownership": "Private", "Name_of_in": "Uganda martyrs Primary School", "Contact_nu": 772606133.000000, "Year_of_op": "1992\/02\/10", "Year": 0, "Govt": 0, "Priv": 1, "Prim": 1, "Sec": 0, "Type": "Schools" }, "geometry": { "type": "Point", "coordinates": [ 32.5825, 0.3803 ] } },
{ "type": "Feature", "properties": { "Please_spe": "Primary Schools", "Ownership": "Government Aided", "Name_of_in": "Kawempe Mbogo primary school", "Contact_nu": 772605229.000000, "Year_of_op": "1947\/02\/17", "Year": 0, "Govt": 1, "Priv": 0, "Prim": 1, "Sec": 0, "Type": "Schools" }, "geometry": { "type": "Point", "coordinates": [ 32.5663, 0.3648 ] } },
{ "type": "Feature", "properties": { "Please_spe": "Primary Schools", "Ownership": "Private", "Name_of_in": "Liberty Education Centre", "Contact_nu": 755200785.000000, "Year_of_op": "1995\/02\/01", "Year": 0, "Govt": 0, "Priv": 1, "Prim": 1, "Sec": 0, "Type": "Schools" }, "geometry": { "type": "Point", "coordinates": [ 32.5596, 0.3591 ] } },
{ "type": "Feature", "properties": { "Please_spe": "Primary Schools", "Ownership": "Private", "Name_of_in": "Babies Day Out Infant School and Kindergarten Kisaasi", "Contact_nu": 753919180.000000, "Year_of_op": "2014\/02\/03", "Year": 0, "Govt": 0, "Priv": 1, "Prim": 1, "Sec": 0, "Type": "Schools" }, "geometry": { "type": "Point", "coordinates": [ 32.5947, 0.3761 ] } },
{ "type": "Feature", "properties": { "Please_spe": "Primary Schools", "Ownership": "Private", "Name_of_in": "Nsangi Primary School", "Contact_nu": 772438399.000000, "Year_of_op": "1972\/01\/11", "Year": 0, "Govt": 0, "Priv": 1, "Prim": 1, "Sec": 0, "Type": "Schools" }, "geometry": { "type": "Point", "coordinates": [ 32.5706, 0.3406 ] } },
{ "type": "Feature", "properties": { "Please_spe": "Primary Schools", "Ownership": "Private", "Name_of_in": "Collins Daycare and Pre School", "Contact_nu": 772303037.000000, "Year_of_op": "2014\/02\/10", "Year": 0, "Govt": 0, "Priv": 1, "Prim": 1, "Sec": 0, "Type": "Schools" }, "geometry": { "type": "Point", "coordinates": [ 32.5959, 0.3741 ] } },
{ "type": "Feature", "properties": { "Please_spe": "Primary Schools", "Ownership": "Government Aided", "Name_of_in": "Clevers Origin Junior School-Kitantale", "Contact_nu": 782038721.000000, "Year_of_op": "2003\/02\/01", "Year": 0, "Govt": 1, "Priv": 0, "Prim": 1, "Sec": 0, "Type": "Schools" }, "geometry": { "type": "Point", "coordinates": [ 32.6362, 0.3181 ] } },
{ "type": "Feature", "properties": { "Please_spe": "Primary Schools", "Ownership": "Private", "Name_of_in": "Royal Community Links Children's Daycare Centre", "Contact_nu": 1.000000, "Year_of_op": "2006\/01\/01", "Year": 0, "Govt": 0, "Priv": 1, "Prim": 1, "Sec": 0, "Type": "Schools" }, "geometry": { "type": "Point", "coordinates": [ 32.6101, 0.2724 ] } },
{ "type": "Feature", "properties": { "Please_spe": "Primary Schools", "Ownership": "Private", "Name_of_in": "FOCUS PRIMARY SCHOOL", "Contact_nu": 772347608.000000, "Year_of_op": "2010\/01\/02", "Year": 0, "Govt": 0, "Priv": 1, "Prim": 1, "Sec": 0, "Type": "Schools" }, "geometry": { "type": "Point", "coordinates": [ 32.6123, 0.3656 ] } },
{ "type": "Feature", "properties": { "Please_spe": "Primary Schools", "Ownership": "Private", "Name_of_in": "new valley primary schools", "Contact_nu": 777178894.000000, "Year_of_op": "2000\/01\/09", "Year": 0, "Govt": 0, "Priv": 1, "Prim": 1, "Sec": 0, "Type": "Schools" }, "geometry": { "type": "Point", "coordinates": [ 32.5566, 0.3819 ] } },
{ "type": "Feature", "properties": { "Please_spe": "Primary Schools", "Ownership": "Private", "Name_of_in": "Bright Stars Primary School", "Contact_nu": 700941773.000000, "Year_of_op": "2001\/02\/05", "Year": 0, "Govt": 0, "Priv": 1, "Prim": 1, "Sec": 0, "Type": "Schools" }, "geometry": { "type": "Point", "coordinates": [ 32.5506, 0.2817 ] } },
{ "type": "Feature", "properties": { "Please_spe": "Primary Schools", "Ownership": "Private", "Name_of_in": "Creamland International Junior Academy", "Contact_nu": 772624841.000000, "Year_of_op": "2011\/02\/07", "Year": 0, "Govt": 0, "Priv": 1, "Prim": 1, "Sec": 0, "Type": "Schools" }, "geometry": { "type": "Point", "coordinates": [ 32.5383, 0.3174 ] } },
{ "type": "Feature", "properties": { "Please_spe": "Primary Schools", "Ownership": "Private", "Name_of_in": "Victory Juniour School", "Contact_nu": 775772785.000000, "Year_of_op": "2013\/02\/11", "Year": 0, "Govt": 0, "Priv": 1, "Prim": 1, "Sec": 0, "Type": "Schools" }, "geometry": { "type": "Point", "coordinates": [ 32.5532, 0.2849 ] } },
{ "type": "Feature", "properties": { "Please_spe": "Primary Schools", "Ownership": "Private", "Name_of_in": "Namutebi Nkata nursery and primary school", "Contact_nu": 772416132.000000, "Year_of_op": "1978\/02\/06", "Year": 0, "Govt": 0, "Priv": 1, "Prim": 1, "Sec": 0, "Type": "Schools" }, "geometry": { "type": "Point", "coordinates": [ 32.5606, 0.3648 ] } },
{ "type": "Feature", "properties": { "Please_spe": "Primary Schools", "Ownership": "Private", "Name_of_in": "STEP BY STEP INFANT SCHOOL", "Contact_nu": 774810862.000000, "Year_of_op": "2005\/01\/01", "Year": 0, "Govt": 0, "Priv": 1, "Prim": 1, "Sec": 0, "Type": "Schools" }, "geometry": { "type": "Point", "coordinates": [ 32.5983, 0.3803 ] } },
{ "type": "Feature", "properties": { "Please_spe": "Primary Schools", "Ownership": "Government Aided", "Name_of_in": "Murchison Bay Day and Boarding Primary School", "Contact_nu": 414504181.000000, "Year_of_op": "1936\/02\/09", "Year": 0, "Govt": 1, "Priv": 0, "Prim": 1, "Sec": 0, "Type": "Schools" }, "geometry": { "type": "Point", "coordinates": [ 32.6436, 0.2997 ] } },
{ "type": "Feature", "properties": { "Please_spe": "Primary Schools", "Ownership": "Private", "Name_of_in": "New Ark Primary School", "Contact_nu": 706577946.000000, "Year_of_op": "2015\/03\/10", "Year": 0, "Govt": 0, "Priv": 1, "Prim": 1, "Sec": 0, "Type": "Schools" }, "geometry": { "type": "Point", "coordinates": [ 32.6001, 0.2818 ] } },
{ "type": "Feature", "properties": { "Please_spe": "Primary Schools", "Ownership": "Private", "Name_of_in": "Good Times Primary School", "Contact_nu": 702060753.000000, "Year_of_op": "2004\/01\/06", "Year": 0, "Govt": 0, "Priv": 1, "Prim": 1, "Sec": 0, "Type": "Schools" }, "geometry": { "type": "Point", "coordinates": [ 32.5717, 0.3983 ] } },
{ "type": "Feature", "properties": { "Please_spe": "Primary Schools", "Ownership": "Private", "Name_of_in": "Golden Gate Primary School Kikaaya", "Contact_nu": 752644401.000000, "Year_of_op": "2008\/02\/04", "Year": 0, "Govt": 0, "Priv": 1, "Prim": 1, "Sec": 0, "Type": "Schools" }, "geometry": { "type": "Point", "coordinates": [ 32.5878, 0.3619 ] } },
{ "type": "Feature", "properties": { "Please_spe": "Primary Schools", "Ownership": "Private", "Name_of_in": "British School Of Kampala", "Contact_nu": 312514792.000000, "Year_of_op": "2012\/01\/26", "Year": 0, "Govt": 0, "Priv": 1, "Prim": 1, "Sec": 0, "Type": "Schools" }, "geometry": { "type": "Point", "coordinates": [ 32.6116, 0.2983 ] } },
{ "type": "Feature", "properties": { "Please_spe": "Primary Schools", "Ownership": "Private", "Name_of_in": "Bwaise green view nursery and primary school", "Contact_nu": 775763568.000000, "Year_of_op": "1995\/02\/06", "Year": 0, "Govt": 0, "Priv": 1, "Prim": 1, "Sec": 0, "Type": "Schools" }, "geometry": { "type": "Point", "coordinates": [ 32.5606, 0.3591 ] } },
{ "type": "Feature", "properties": { "Please_spe": "Primary Schools", "Ownership": "Private", "Name_of_in": "salama islamic primary school", "Contact_nu": 700582766.000000, "Year_of_op": "2009\/02\/01", "Year": 0, "Govt": 0, "Priv": 1, "Prim": 1, "Sec": 0, "Type": "Schools" }, "geometry": { "type": "Point", "coordinates": [ 32.5795, 0.2787 ] } },
{ "type": "Feature", "properties": { "Please_spe": "Primary Schools", "Ownership": "Government Aided", "Name_of_in": "St.Martin Mulago Primary School", "Contact_nu": 774941003.000000, "Year_of_op": "1956\/01\/20", "Year": 0, "Govt": 1, "Priv": 0, "Prim": 1, "Sec": 0, "Type": "Schools" }, "geometry": { "type": "Point", "coordinates": [ 32.5754, 0.3455 ] } },
{ "type": "Feature", "properties": { "Please_spe": "Primary Schools", "Ownership": "Government Aided", "Name_of_in": "ST.JOSEPH MAPEERA MEMORIAL PRIMARY SCHOOL", "Contact_nu": 783084001.000000, "Year_of_op": "1963\/01\/01", "Year": 0, "Govt": 1, "Priv": 0, "Prim": 1, "Sec": 0, "Type": "Schools" }, "geometry": { "type": "Point", "coordinates": [ 32.5456, 0.325 ] } },
{ "type": "Feature", "properties": { "Please_spe": "Primary Schools", "Ownership": "Private", "Name_of_in": "Minaka kindergarten", "Contact_nu": 772417791.000000, "Year_of_op": "1987\/02\/10", "Year": 0, "Govt": 0, "Priv": 1, "Prim": 1, "Sec": 0, "Type": "Schools" }, "geometry": { "type": "Point", "coordinates": [ 32.5791, 0.2916 ] } },
{ "type": "Feature", "properties": { "Please_spe": "Primary Schools", "Ownership": "Private", "Name_of_in": "Hopeland Infant School Primary", "Contact_nu": 1.000000, "Year_of_op": "2011\/01\/01", "Year": 0, "Govt": 0, "Priv": 1, "Prim": 1, "Sec": 0, "Type": "Schools" }, "geometry": { "type": "Point", "coordinates": [ 32.6204, 0.2539 ] } },
{ "type": "Feature", "properties": { "Please_spe": "Primary Schools", "Ownership": "Private", "Name_of_in": "Minaka primary school", "Contact_nu": 772467559.000000, "Year_of_op": "1987\/01\/10", "Year": 0, "Govt": 0, "Priv": 1, "Prim": 1, "Sec": 0, "Type": "Schools" }, "geometry": { "type": "Point", "coordinates": [ 32.579, 0.2914 ] } },
{ "type": "Feature", "properties": { "Please_spe": "Primary Schools", "Ownership": "Private", "Name_of_in": "Mirembe Infant School", "Contact_nu": 705503864.000000, "Year_of_op": "2009\/02\/09", "Year": 0, "Govt": 0, "Priv": 1, "Prim": 1, "Sec": 0, "Type": "Schools" }, "geometry": { "type": "Point", "coordinates": [ 32.5759, 0.3765 ] } },
{ "type": "Feature", "properties": { "Please_spe": "Primary Schools", "Ownership": "Private", "Name_of_in": "GREAT VALLEY CHILDREN'S CENTRE PRIMARY SCHOOL", "Contact_nu": 772611652.000000, "Year_of_op": "2015\/02\/20", "Year": 0, "Govt": 0, "Priv": 1, "Prim": 1, "Sec": 0, "Type": "Schools" }, "geometry": { "type": "Point", "coordinates": [ 32.5831, 0.2907 ] } },
{ "type": "Feature", "properties": { "Please_spe": "Primary Schools", "Ownership": "Private", "Name_of_in": "JUSSAM PRIMARY SCHOOL", "Contact_nu": 772961718.000000, "Year_of_op": "2001\/01\/22", "Year": 0, "Govt": 0, "Priv": 1, "Prim": 1, "Sec": 0, "Type": "Schools" }, "geometry": { "type": "Point", "coordinates": [ 32.5893, 0.2936 ] } },
{ "type": "Feature", "properties": { "Please_spe": "Primary Schools", "Ownership": "Private", "Name_of_in": "CANAAN PRIMARY SCHOOL", "Contact_nu": 703972226.000000, "Year_of_op": "1999\/02\/26", "Year": 0, "Govt": 0, "Priv": 1, "Prim": 1, "Sec": 0, "Type": "Schools" }, "geometry": { "type": "Point", "coordinates": [ 32.5918, 0.2692 ] } },
{ "type": "Feature", "properties": { "Please_spe": "Primary Schools", "Ownership": "Private", "Name_of_in": "Kabowa Hidayat Islamic School", "Contact_nu": 788041900.000000, "Year_of_op": "1973\/02\/11", "Year": 0, "Govt": 0, "Priv": 1, "Prim": 1, "Sec": 0, "Type": "Schools" }, "geometry": { "type": "Point", "coordinates": [ 32.5626, 0.29 ] } },
{ "type": "Feature", "properties": { "Please_spe": "Primary Schools", "Ownership": "Private", "Name_of_in": "Brook Fountain Primary School", "Contact_nu": 772482253.000000, "Year_of_op": "2006\/01\/06", "Year": 0, "Govt": 0, "Priv": 1, "Prim": 1, "Sec": 0, "Type": "Schools" }, "geometry": { "type": "Point", "coordinates": [ 32.6415, 0.3065 ] } },
{ "type": "Feature", "properties": { "Please_spe": "Primary Schools", "Ownership": "Private", "Name_of_in": "PROGRESSIVE JUNIOR SCHOOL", "Contact_nu": 782171924.000000, "Year_of_op": "1996\/01\/01", "Year": 0, "Govt": 0, "Priv": 1, "Prim": 1, "Sec": 0, "Type": "Schools" }, "geometry": { "type": "Point", "coordinates": [ 32.6444, 0.3015 ] } },
{ "type": "Feature", "properties": { "Please_spe": "Primary Schools", "Ownership": "Private", "Name_of_in": "NAMUNGOONA PARENTS JUNIOR SCHOOL", "Contact_nu": 772354564.000000, "Year_of_op": "2014\/01\/01", "Year": 0, "Govt": 0, "Priv": 1, "Prim": 1, "Sec": 0, "Type": "Schools" }, "geometry": { "type": "Point", "coordinates": [ 32.5389, 0.3336 ] } },
{ "type": "Feature", "properties": { "Please_spe": "Primary Schools", "Ownership": "Private", "Name_of_in": "HAPPY HOURS PRIMARY SCHOOL LUZIRA", "Contact_nu": 782316975.000000, "Year_of_op": "2000\/01\/01", "Year": 0, "Govt": 0, "Priv": 1, "Prim": 1, "Sec": 0, "Type": "Schools" }, "geometry": { "type": "Point", "coordinates": [ 32.6444, 0.3028 ] } },
{ "type": "Feature", "properties": { "Please_spe": "Primary Schools", "Ownership": "Private", "Name_of_in": "Kampala Quality Primary School", "Contact_nu": 772513316.000000, "Year_of_op": "1999\/02\/08", "Year": 0, "Govt": 0, "Priv": 1, "Prim": 1, "Sec": 0, "Type": "Schools" }, "geometry": { "type": "Point", "coordinates": [ 32.585, 0.3652 ] } },
{ "type": "Feature", "properties": { "Please_spe": "Primary Schools", "Ownership": "Private", "Name_of_in": "Summer Junior schools", "Contact_nu": 772516888.000000, "Year_of_op": "1999\/05\/03", "Year": 0, "Govt": 0, "Priv": 1, "Prim": 1, "Sec": 0, "Type": "Schools" }, "geometry": { "type": "Point", "coordinates": [ 32.558, 0.2905 ] } },
{ "type": "Feature", "properties": { "Please_spe": "Primary Schools", "Ownership": "Government Aided", "Name_of_in": "Makerere Primary School", "Contact_nu": 204660000.000000, "Year_of_op": "1998\/09\/08", "Year": 0, "Govt": 1, "Priv": 0, "Prim": 1, "Sec": 0, "Type": "Schools" }, "geometry": { "type": "Point", "coordinates": [ 32.5649, 0.3393 ] } },
{ "type": "Feature", "properties": { "Please_spe": "Primary Schools", "Ownership": "Private", "Name_of_in": "Good Times Infant School", "Contact_nu": 414379111.000000, "Year_of_op": "1992\/02\/02", "Year": 0, "Govt": 0, "Priv": 1, "Prim": 1, "Sec": 0, "Type": "Schools" }, "geometry": { "type": "Point", "coordinates": [ 32.5551, 0.3402 ] } },
{ "type": "Feature", "properties": { "Please_spe": "Primary Schools", "Ownership": "Private", "Name_of_in": "Wisdom junior school", "Contact_nu": 1.000000, "Year_of_op": "2010\/01\/20", "Year": 0, "Govt": 0, "Priv": 1, "Prim": 1, "Sec": 0, "Type": "Schools" }, "geometry": { "type": "Point", "coordinates": [ 32.5941, 0.3022 ] } },
{ "type": "Feature", "properties": { "Please_spe": "Primary Schools", "Ownership": "Private", "Name_of_in": "Vallerian primary school", "Contact_nu": 772259037.000000, "Year_of_op": "1997\/02\/16", "Year": 0, "Govt": 0, "Priv": 1, "Prim": 1, "Sec": 0, "Type": "Schools" }, "geometry": { "type": "Point", "coordinates": [ 32.6016, 0.3045 ] } },
{ "type": "Feature", "properties": { "Please_spe": "Primary Schools", "Ownership": "Private", "Name_of_in": "AUNT CAROL INFANT SCHOOL", "Contact_nu": 772090245.000000, "Year_of_op": "2010\/01\/01", "Year": 0, "Govt": 0, "Priv": 1, "Prim": 1, "Sec": 0, "Type": "Schools" }, "geometry": { "type": "Point", "coordinates": [ 32.5392, 0.3317 ] } },
{ "type": "Feature", "properties": { "Please_spe": "Primary Schools", "Ownership": "Private", "Name_of_in": "Go Study Junior School Primary", "Contact_nu": 704240642.000000, "Year_of_op": "2014\/01\/01", "Year": 0, "Govt": 0, "Priv": 1, "Prim": 1, "Sec": 0, "Type": "Schools" }, "geometry": { "type": "Point", "coordinates": [ 32.6207, 0.256 ] } },
{ "type": "Feature", "properties": { "Please_spe": "Primary Schools", "Ownership": "Private", "Name_of_in": "LUWAFU JUNIOR SCHOOL", "Contact_nu": 782820640.000000, "Year_of_op": "2002\/02\/26", "Year": 0, "Govt": 0, "Priv": 1, "Prim": 1, "Sec": 0, "Type": "Schools" }, "geometry": { "type": "Point", "coordinates": [ 32.5952, 0.2699 ] } },
{ "type": "Feature", "properties": { "Please_spe": "Primary Schools", "Ownership": "Government Aided", "Name_of_in": "Kyaggwe Road Primary School", "Contact_nu": 700950887.000000, "Year_of_op": "1954\/01\/15", "Year": 0, "Govt": 1, "Priv": 0, "Prim": 1, "Sec": 0, "Type": "Schools" }, "geometry": { "type": "Point", "coordinates": [ 32.5685, 0.3042 ] } },
{ "type": "Feature", "properties": { "Please_spe": "Primary Schools", "Ownership": "Private", "Name_of_in": "Jovic primary school", "Contact_nu": 772550272.000000, "Year_of_op": "2010\/02\/15", "Year": 0, "Govt": 0, "Priv": 1, "Prim": 1, "Sec": 0, "Type": "Schools" }, "geometry": { "type": "Point", "coordinates": [ 32.5387, 0.2969 ] } },
{ "type": "Feature", "properties": { "Please_spe": "Primary Schools", "Ownership": "Private", "Name_of_in": "Merowa junior academy", "Contact_nu": 784552633.000000, "Year_of_op": "2005\/01\/16", "Year": 0, "Govt": 0, "Priv": 1, "Prim": 1, "Sec": 0, "Type": "Schools" }, "geometry": { "type": "Point", "coordinates": [ 32.6002, 0.3036 ] } },
{ "type": "Feature", "properties": { "Please_spe": "Primary Schools", "Ownership": "Private", "Name_of_in": "God's Will Junior School", "Contact_nu": 778222505.000000, "Year_of_op": "2015\/02\/02", "Year": 0, "Govt": 0, "Priv": 1, "Prim": 1, "Sec": 0, "Type": "Schools" }, "geometry": { "type": "Point", "coordinates": [ 32.5709, 0.3767 ] } },
{ "type": "Feature", "properties": { "Please_spe": "Primary Schools", "Ownership": "Private", "Name_of_in": "St Andrew Primary School Masanafu", "Contact_nu": 702456302.000000, "Year_of_op": "2015\/03\/10", "Year": 0, "Govt": 0, "Priv": 1, "Prim": 1, "Sec": 0, "Type": "Schools" }, "geometry": { "type": "Point", "coordinates": [ 32.5332, 0.3288 ] } },
{ "type": "Feature", "properties": { "Please_spe": "Primary Schools", "Ownership": "Private", "Name_of_in": "Lungujja Model Junior School", "Contact_nu": 775393282.000000, "Year_of_op": "2006\/02\/06", "Year": 0, "Govt": 0, "Priv": 1, "Prim": 1, "Sec": 0, "Type": "Schools" }, "geometry": { "type": "Point", "coordinates": [ 32.5379, 0.3136 ] } },
{ "type": "Feature", "properties": { "Please_spe": "Primary Schools", "Ownership": "Private", "Name_of_in": "Eaglets Academy Busega", "Contact_nu": 779077000.000000, "Year_of_op": "2008\/02\/04", "Year": 0, "Govt": 0, "Priv": 1, "Prim": 1, "Sec": 0, "Type": "Schools" }, "geometry": { "type": "Point", "coordinates": [ 32.5226, 0.3049 ] } },
{ "type": "Feature", "properties": { "Please_spe": "Primary Schools", "Ownership": "Private", "Name_of_in": "Niyyat primary school", "Contact_nu": 774162851.000000, "Year_of_op": "2000\/02\/14", "Year": 0, "Govt": 0, "Priv": 1, "Prim": 1, "Sec": 0, "Type": "Schools" }, "geometry": { "type": "Point", "coordinates": [ 32.5663, 0.3517 ] } },
{ "type": "Feature", "properties": { "Please_spe": "Primary Schools", "Ownership": "Private", "Name_of_in": "St.john baptist primary school", "Contact_nu": 782166162.000000, "Year_of_op": "1997\/02\/16", "Year": 0, "Govt": 0, "Priv": 1, "Prim": 1, "Sec": 0, "Type": "Schools" }, "geometry": { "type": "Point", "coordinates": [ 32.5988, 0.3024 ] } },
{ "type": "Feature", "properties": { "Please_spe": "Primary Schools", "Ownership": "Private", "Name_of_in": "Sunset junior school,Kawempe", "Contact_nu": 784823215.000000, "Year_of_op": "2006\/02\/06", "Year": 0, "Govt": 0, "Priv": 1, "Prim": 1, "Sec": 0, "Type": "Schools" }, "geometry": { "type": "Point", "coordinates": [ 32.5728, 0.3677 ] } },
{ "type": "Feature", "properties": { "Please_spe": "Primary Schools", "Ownership": "Private", "Name_of_in": "Great valley children's centre primary school", "Contact_nu": 1.000000, "Year_of_op": "2006\/02\/10", "Year": 0, "Govt": 0, "Priv": 1, "Prim": 1, "Sec": 0, "Type": "Schools" }, "geometry": { "type": "Point", "coordinates": [ 32.583, 0.2907 ] } },
{ "type": "Feature", "properties": { "Please_spe": "Primary Schools", "Ownership": "Private", "Name_of_in": "LWAGULA MEMORIAL PRIMARY SCHOOL", "Contact_nu": 772406702.000000, "Year_of_op": "2015\/02\/26", "Year": 0, "Govt": 0, "Priv": 1, "Prim": 1, "Sec": 0, "Type": "Schools" }, "geometry": { "type": "Point", "coordinates": [ 32.5933, 0.2691 ] } },
{ "type": "Feature", "properties": { "Please_spe": "Primary Schools", "Ownership": "Private", "Name_of_in": "Ntaga Memorial primary school", "Contact_nu": 782706969.000000, "Year_of_op": "1998\/02\/02", "Year": 0, "Govt": 0, "Priv": 1, "Prim": 1, "Sec": 0, "Type": "Schools" }, "geometry": { "type": "Point", "coordinates": [ 32.5357, 0.2986 ] } },
{ "type": "Feature", "properties": { "Please_spe": "Primary Schools", "Ownership": "Private", "Name_of_in": "Christ The King Primary School", "Contact_nu": 1.000000, "Year_of_op": "2005\/01\/01", "Year": 0, "Govt": 0, "Priv": 1, "Prim": 1, "Sec": 0, "Type": "Schools" }, "geometry": { "type": "Point", "coordinates": [ 32.5984, 0.2943 ] } },
{ "type": "Feature", "properties": { "Please_spe": "Primary Schools", "Ownership": "Private", "Name_of_in": "Kampala Melidian primary school", "Contact_nu": 759670242.000000, "Year_of_op": "2008\/02\/04", "Year": 0, "Govt": 0, "Priv": 1, "Prim": 1, "Sec": 0, "Type": "Schools" }, "geometry": { "type": "Point", "coordinates": [ 32.539, 0.2927 ] } },
{ "type": "Feature", "properties": { "Please_spe": "Primary Schools", "Ownership": "Private", "Name_of_in": "kazo islamic nursery and primary school", "Contact_nu": 772462236.000000, "Year_of_op": "1990\/02\/09", "Year": 0, "Govt": 0, "Priv": 1, "Prim": 1, "Sec": 0, "Type": "Schools" }, "geometry": { "type": "Point", "coordinates": [ 32.5555, 0.3623 ] } },
{ "type": "Feature", "properties": { "Please_spe": "Primary Schools", "Ownership": "Private", "Name_of_in": "Kiyanja Nursery and Primary School", "Contact_nu": 782401673.000000, "Year_of_op": "1998\/02\/09", "Year": 0, "Govt": 0, "Priv": 1, "Prim": 1, "Sec": 0, "Type": "Schools" }, "geometry": { "type": "Point", "coordinates": [ 32.5716, 0.3774 ] } },
{ "type": "Feature", "properties": { "Please_spe": "Primary Schools", "Ownership": "Government Aided", "Name_of_in": "Kisugu church of uganda primary school", "Contact_nu": 204660000.000000, "Year_of_op": "1985\/02\/16", "Year": 0, "Govt": 1, "Priv": 0, "Prim": 1, "Sec": 0, "Type": "Schools" }, "geometry": { "type": "Point", "coordinates": [ 32.6047, 0.3036 ] } },
{ "type": "Feature", "properties": { "Please_spe": "Primary Schools", "Ownership": "Private", "Name_of_in": "Najjanankumbi Young Christian School", "Contact_nu": 414510266.000000, "Year_of_op": "1961\/02\/13", "Year": 0, "Govt": 0, "Priv": 1, "Prim": 1, "Sec": 0, "Type": "Schools" }, "geometry": { "type": "Point", "coordinates": [ 32.5666, 0.2827 ] } },
{ "type": "Feature", "properties": { "Please_spe": "Primary Schools", "Ownership": "Private", "Name_of_in": "FAMILY PRIMARY SCHOOL", "Contact_nu": 776940986.000000, "Year_of_op": "1978\/01\/01", "Year": 0, "Govt": 0, "Priv": 1, "Prim": 1, "Sec": 0, "Type": "Schools" }, "geometry": { "type": "Point", "coordinates": [ 32.5505, 0.3277 ] } },
{ "type": "Feature", "properties": { "Please_spe": "Primary Schools", "Ownership": "Private", "Name_of_in": "Destiny Infants School", "Contact_nu": 772435034.000000, "Year_of_op": "2013\/02\/03", "Year": 0, "Govt": 0, "Priv": 1, "Prim": 1, "Sec": 0, "Type": "Schools" }, "geometry": { "type": "Point", "coordinates": [ 32.5542, 0.3396 ] } },
{ "type": "Feature", "properties": { "Please_spe": "Primary Schools", "Ownership": "Private", "Name_of_in": "Bilal islamic primary school", "Contact_nu": 702750299.000000, "Year_of_op": "1962\/02\/12", "Year": 0, "Govt": 0, "Priv": 1, "Prim": 1, "Sec": 0, "Type": "Schools" }, "geometry": { "type": "Point", "coordinates": [ 32.564, 0.3532 ] } },
{ "type": "Feature", "properties": { "Please_spe": "Primary Schools", "Ownership": "Private", "Name_of_in": "God's Will Primary School", "Contact_nu": 753027030.000000, "Year_of_op": "2008\/02\/04", "Year": 0, "Govt": 0, "Priv": 1, "Prim": 1, "Sec": 0, "Type": "Schools" }, "geometry": { "type": "Point", "coordinates": [ 32.5328, 0.3308 ] } },
{ "type": "Feature", "properties": { "Please_spe": "Primary Schools", "Ownership": "Private", "Name_of_in": "Rock of Joy Parent's Primary School", "Contact_nu": 772476413.000000, "Year_of_op": "2007\/02\/05", "Year": 0, "Govt": 0, "Priv": 1, "Prim": 1, "Sec": 0, "Type": "Schools" }, "geometry": { "type": "Point", "coordinates": [ 32.5382, 0.3146 ] } },
{ "type": "Feature", "properties": { "Please_spe": "Primary Schools", "Ownership": "Private", "Name_of_in": "City Junior School-Nateete", "Contact_nu": 772455918.000000, "Year_of_op": "1993\/02\/01", "Year": 0, "Govt": 0, "Priv": 1, "Prim": 1, "Sec": 0, "Type": "Schools" }, "geometry": { "type": "Point", "coordinates": [ 32.5348, 0.2991 ] } },
{ "type": "Feature", "properties": { "Please_spe": "Primary Schools", "Ownership": "Private", "Name_of_in": "St Francis junior school", "Contact_nu": 312514814.000000, "Year_of_op": "2002\/02\/11", "Year": 0, "Govt": 0, "Priv": 1, "Prim": 1, "Sec": 0, "Type": "Schools" }, "geometry": { "type": "Point", "coordinates": [ 32.5522, 0.2747 ] } },
{ "type": "Feature", "properties": { "Please_spe": "Primary Schools", "Ownership": "Private", "Name_of_in": "City Parents' School", "Contact_nu": 414270309.000000, "Year_of_op": "1999\/01\/16", "Year": 0, "Govt": 0, "Priv": 1, "Prim": 1, "Sec": 0, "Type": "Schools" }, "geometry": { "type": "Point", "coordinates": [ 32.5655, 0.3051 ] } },
{ "type": "Feature", "properties": { "Please_spe": "Primary Schools", "Ownership": "Private", "Name_of_in": "GRAND SPEY NURSERY AND PRIMARY SCHOOL", "Contact_nu": 782838641.000000, "Year_of_op": "1998\/01\/01", "Year": 0, "Govt": 0, "Priv": 1, "Prim": 1, "Sec": 0, "Type": "Schools" }, "geometry": { "type": "Point", "coordinates": [ 32.5417, 0.3413 ] } },
{ "type": "Feature", "properties": { "Please_spe": "Primary Schools", "Ownership": "Private", "Name_of_in": "Ronah Nursery and Primary School Kanyanya", "Contact_nu": 392300896.000000, "Year_of_op": "2014\/02\/10", "Year": 0, "Govt": 0, "Priv": 1, "Prim": 1, "Sec": 0, "Type": "Schools" }, "geometry": { "type": "Point", "coordinates": [ 32.5802, 0.3714 ] } },
{ "type": "Feature", "properties": { "Please_spe": "Primary Schools", "Ownership": "Private", "Name_of_in": "BRAIN TREE PRIMARY SCHOOL", "Contact_nu": 776144274.000000, "Year_of_op": "1994\/01\/01", "Year": 0, "Govt": 0, "Priv": 1, "Prim": 1, "Sec": 0, "Type": "Schools" }, "geometry": { "type": "Point", "coordinates": [ 32.6006, 0.4007 ] } },
{ "type": "Feature", "properties": { "Please_spe": "Primary Schools", "Ownership": "Private", "Name_of_in": "St Benedict primary school Nalukolongo", "Contact_nu": 712978115.000000, "Year_of_op": "1989\/02\/06", "Year": 0, "Govt": 0, "Priv": 1, "Prim": 1, "Sec": 0, "Type": "Schools" }, "geometry": { "type": "Point", "coordinates": [ 32.542, 0.2984 ] } },
{ "type": "Feature", "properties": { "Please_spe": "Primary Schools", "Ownership": "Private", "Name_of_in": "CHARITY COMMUNITY SCHOOL LUSAZE", "Contact_nu": 782049308.000000, "Year_of_op": "2003\/01\/01", "Year": 0, "Govt": 0, "Priv": 1, "Prim": 1, "Sec": 0, "Type": "Schools" }, "geometry": { "type": "Point", "coordinates": [ 32.5475, 0.3235 ] } },
{ "type": "Feature", "properties": { "Please_spe": "Primary Schools", "Ownership": "Private", "Name_of_in": "ST JOSEPH'S NSAMBYA PRIMARY SCHOOL", "Contact_nu": 414964111.000000, "Year_of_op": "1985\/08\/26", "Year": 0, "Govt": 0, "Priv": 1, "Prim": 1, "Sec": 0, "Type": "Schools" }, "geometry": { "type": "Point", "coordinates": [ 32.5838, 0.3013 ] } },
{ "type": "Feature", "properties": { "Please_spe": "Primary Schools", "Ownership": "Private", "Name_of_in": "Happy Days Quality School Primary", "Contact_nu": 1.000000, "Year_of_op": "2007\/01\/04", "Year": 0, "Govt": 0, "Priv": 1, "Prim": 1, "Sec": 0, "Type": "Schools" }, "geometry": { "type": "Point", "coordinates": [ 32.599, 0.2828 ] } },
{ "type": "Feature", "properties": { "Please_spe": "Primary Schools", "Ownership": "Private", "Name_of_in": "Tender Age Junior School Kyebando", "Contact_nu": 775973287.000000, "Year_of_op": "2010\/02\/08", "Year": 0, "Govt": 0, "Priv": 1, "Prim": 1, "Sec": 0, "Type": "Schools" }, "geometry": { "type": "Point", "coordinates": [ 32.5827, 0.358 ] } },
{ "type": "Feature", "properties": { "Please_spe": "Primary Schools", "Ownership": "Private", "Name_of_in": "Bright Trust Primary School Mutundwe", "Contact_nu": 712411735.000000, "Year_of_op": "1997\/02\/03", "Year": 0, "Govt": 0, "Priv": 1, "Prim": 1, "Sec": 0, "Type": "Schools" }, "geometry": { "type": "Point", "coordinates": [ 32.5317, 0.2951 ] } },
{ "type": "Feature", "properties": { "Please_spe": "Primary Schools", "Ownership": "Private", "Name_of_in": "QUALITY FOUNDATION NURSERY AND PRIMARY SCHOOL", "Contact_nu": 777934366.000000, "Year_of_op": "1993\/01\/01", "Year": 0, "Govt": 0, "Priv": 1, "Prim": 1, "Sec": 0, "Type": "Schools" }, "geometry": { "type": "Point", "coordinates": [ 32.5408, 0.34 ] } },
{ "type": "Feature", "properties": { "Please_spe": "Primary Schools", "Ownership": "Private", "Name_of_in": "Red Hamisha Primary School", "Contact_nu": 772429086.000000, "Year_of_op": "2004\/02\/02", "Year": 0, "Govt": 0, "Priv": 1, "Prim": 1, "Sec": 0, "Type": "Schools" }, "geometry": { "type": "Point", "coordinates": [ 32.5309, 0.3301 ] } },
{ "type": "Feature", "properties": { "Please_spe": "Primary Schools", "Ownership": "Private", "Name_of_in": "star primary school", "Contact_nu": 701433415.000000, "Year_of_op": "2014\/02\/01", "Year": 0, "Govt": 0, "Priv": 1, "Prim": 1, "Sec": 0, "Type": "Schools" }, "geometry": { "type": "Point", "coordinates": [ 32.5784, 0.2805 ] } },
{ "type": "Feature", "properties": { "Please_spe": "Primary Schools", "Ownership": "Private", "Name_of_in": "Entebbe Road Juniour primary School", "Contact_nu": 701468037.000000, "Year_of_op": "2008\/02\/11", "Year": 0, "Govt": 0, "Priv": 1, "Prim": 1, "Sec": 0, "Type": "Schools" }, "geometry": { "type": "Point", "coordinates": [ 32.5676, 0.2896 ] } },
{ "type": "Feature", "properties": { "Please_spe": "Primary Schools", "Ownership": "Government Aided", "Name_of_in": "St.Paul Demonstration School Gabba", "Contact_nu": 1.000000, "Year_of_op": "1985\/01\/01", "Year": 0, "Govt": 1, "Priv": 0, "Prim": 1, "Sec": 0, "Type": "Schools" }, "geometry": { "type": "Point", "coordinates": [ 32.627, 0.2655 ] } },
{ "type": "Feature", "properties": { "Please_spe": "Primary Schools", "Ownership": "Private", "Name_of_in": "Step By Step Primary School", "Contact_nu": 772507203.000000, "Year_of_op": "1991\/02\/04", "Year": 0, "Govt": 0, "Priv": 1, "Prim": 1, "Sec": 0, "Type": "Schools" }, "geometry": { "type": "Point", "coordinates": [ 32.5514, 0.3141 ] } },
{ "type": "Feature", "properties": { "Please_spe": "Primary Schools", "Ownership": "Private", "Name_of_in": "WATERFORD PRIMARY SCHOOL", "Contact_nu": 702737129.000000, "Year_of_op": "2002\/01\/01", "Year": 0, "Govt": 0, "Priv": 1, "Prim": 1, "Sec": 0, "Type": "Schools" }, "geometry": { "type": "Point", "coordinates": [ 32.6329, 0.3424 ] } },
{ "type": "Feature", "properties": { "Please_spe": "Primary Schools", "Ownership": "Private", "Name_of_in": "Ndeeba  Junior school", "Contact_nu": 772383251.000000, "Year_of_op": "1995\/02\/06", "Year": 0, "Govt": 0, "Priv": 1, "Prim": 1, "Sec": 0, "Type": "Schools" }, "geometry": { "type": "Point", "coordinates": [ 32.5638, 0.2919 ] } },
{ "type": "Feature", "properties": { "Please_spe": "Primary Schools", "Ownership": "Private", "Name_of_in": "Good Samaritan Infant School,Kanyanya", "Contact_nu": 775786150.000000, "Year_of_op": "2002\/02\/11", "Year": 0, "Govt": 0, "Priv": 1, "Prim": 1, "Sec": 0, "Type": "Schools" }, "geometry": { "type": "Point", "coordinates": [ 32.5786, 0.3734 ] } },
{ "type": "Feature", "properties": { "Please_spe": "Primary Schools", "Ownership": "Private", "Name_of_in": "Disney primary school", "Contact_nu": 783134147.000000, "Year_of_op": "2015\/02\/09", "Year": 0, "Govt": 0, "Priv": 1, "Prim": 1, "Sec": 0, "Type": "Schools" }, "geometry": { "type": "Point", "coordinates": [ 32.5673, 0.2886 ] } },
{ "type": "Feature", "properties": { "Please_spe": "Primary Schools", "Ownership": "Private", "Name_of_in": "GOD's will nursery and primary school", "Contact_nu": 712640402.000000, "Year_of_op": "2004\/02\/09", "Year": 0, "Govt": 0, "Priv": 1, "Prim": 1, "Sec": 0, "Type": "Schools" }, "geometry": { "type": "Point", "coordinates": [ 32.5744, 0.3681 ] } },
{ "type": "Feature", "properties": { "Please_spe": "Primary Schools", "Ownership": "Government Aided", "Name_of_in": "MILITARY POLICE PRIMARY SCHOOL", "Contact_nu": 774461076.000000, "Year_of_op": "1992\/02\/22", "Year": 0, "Govt": 1, "Priv": 0, "Prim": 1, "Sec": 0, "Type": "Schools" }, "geometry": { "type": "Point", "coordinates": [ 32.5833, 0.2892 ] } },
{ "type": "Feature", "properties": { "Please_spe": "Primary Schools", "Ownership": "Government Aided", "Name_of_in": "KYANJA MUSLIM PRIMARY SCHOOL", "Contact_nu": 772451447.000000, "Year_of_op": "1969\/01\/01", "Year": 0, "Govt": 1, "Priv": 0, "Prim": 1, "Sec": 0, "Type": "Schools" }, "geometry": { "type": "Point", "coordinates": [ 32.6007, 0.3949 ] } },
{ "type": "Feature", "properties": { "Please_spe": "Primary Schools", "Ownership": "Private", "Name_of_in": "Merryland Infant and Primary School", "Contact_nu": 779430533.000000, "Year_of_op": "1988\/02\/08", "Year": 0, "Govt": 0, "Priv": 1, "Prim": 1, "Sec": 0, "Type": "Schools" }, "geometry": { "type": "Point", "coordinates": [ 32.5785, 0.3739 ] } },
{ "type": "Feature", "properties": { "Please_spe": "Primary Schools", "Ownership": "Private", "Name_of_in": "His Grace nursery and primary school", "Contact_nu": 756887667.000000, "Year_of_op": "2015\/02\/02", "Year": 0, "Govt": 0, "Priv": 1, "Prim": 1, "Sec": 0, "Type": "Schools" }, "geometry": { "type": "Point", "coordinates": [ 32.5757, 0.3677 ] } },
{ "type": "Feature", "properties": { "Please_spe": "Primary Schools", "Ownership": "Private", "Name_of_in": "Kampala International School", "Contact_nu": 752711882.000000, "Year_of_op": "2009\/02\/09", "Year": 0, "Govt": 0, "Priv": 1, "Prim": 1, "Sec": 0, "Type": "Schools" }, "geometry": { "type": "Point", "coordinates": [ 32.5918, 0.3492 ] } },
{ "type": "Feature", "properties": { "Please_spe": "Primary Schools", "Ownership": "Private", "Name_of_in": "Bukoto Community Primary School", "Contact_nu": 782431456.000000, "Year_of_op": "2006\/03\/10", "Year": 0, "Govt": 0, "Priv": 1, "Prim": 1, "Sec": 0, "Type": "Schools" }, "geometry": { "type": "Point", "coordinates": [ 32.5918, 0.3492 ] } },
{ "type": "Feature", "properties": { "Please_spe": "Primary Schools", "Ownership": "Private", "Name_of_in": "ST.JUDE PRIMARY SCHOOL", "Contact_nu": 752659232.000000, "Year_of_op": "1997\/01\/01", "Year": 0, "Govt": 0, "Priv": 1, "Prim": 1, "Sec": 0, "Type": "Schools" }, "geometry": { "type": "Point", "coordinates": [ 32.5437, 0.339 ] } },
{ "type": "Feature", "properties": { "Please_spe": "Primary Schools", "Ownership": "Private", "Name_of_in": "St.Joseph Primary School", "Contact_nu": 77315807.000000, "Year_of_op": "2005\/02\/26", "Year": 0, "Govt": 0, "Priv": 1, "Prim": 1, "Sec": 0, "Type": "Schools" }, "geometry": { "type": "Point", "coordinates": [ 32.6081, 0.3065 ] } },
{ "type": "Feature", "properties": { "Please_spe": "Primary Schools", "Ownership": "Private", "Name_of_in": "Nsambya primary school", "Contact_nu": 257846.000000, "Year_of_op": "1980\/02\/07", "Year": 0, "Govt": 0, "Priv": 1, "Prim": 1, "Sec": 0, "Type": "Schools" }, "geometry": { "type": "Point", "coordinates": [ 32.584, 0.3041 ] } },
{ "type": "Feature", "properties": { "Please_spe": "Primary Schools", "Ownership": "Private", "Name_of_in": "St.Poul's Mulago Primary School", "Contact_nu": 785603788.000000, "Year_of_op": "2000\/01\/22", "Year": 0, "Govt": 0, "Priv": 1, "Prim": 1, "Sec": 0, "Type": "Schools" }, "geometry": { "type": "Point", "coordinates": [ 32.5761, 0.3425 ] } },
{ "type": "Feature", "properties": { "Please_spe": "Primary Schools", "Ownership": "Private", "Name_of_in": "Freelife Nursery and Primary School", "Contact_nu": 788301651.000000, "Year_of_op": "2014\/02\/10", "Year": 0, "Govt": 0, "Priv": 1, "Prim": 1, "Sec": 0, "Type": "Schools" }, "geometry": { "type": "Point", "coordinates": [ 32.5743, 0.3792 ] } },
{ "type": "Feature", "properties": { "Please_spe": "Primary Schools", "Ownership": "Private", "Name_of_in": "Jack And Jill Junior School", "Contact_nu": 752652553.000000, "Year_of_op": "2015\/02\/14", "Year": 0, "Govt": 0, "Priv": 1, "Prim": 1, "Sec": 0, "Type": "Schools" }, "geometry": { "type": "Point", "coordinates": [ 32.5755, 0.3357 ] } },
{ "type": "Feature", "properties": { "Please_spe": "Primary Schools", "Ownership": "Private", "Name_of_in": "FullGospel primary school", "Contact_nu": 753757916.000000, "Year_of_op": "1998\/01\/05", "Year": 0, "Govt": 0, "Priv": 1, "Prim": 1, "Sec": 0, "Type": "Schools" }, "geometry": { "type": "Point", "coordinates": [ 32.5805, 0.3053 ] } },
{ "type": "Feature", "properties": { "Please_spe": "Primary Schools", "Ownership": "Private", "Name_of_in": "Mwebaza Infant School & Day Care", "Contact_nu": 712189138.000000, "Year_of_op": "2008\/02\/11", "Year": 0, "Govt": 0, "Priv": 1, "Prim": 1, "Sec": 0, "Type": "Schools" }, "geometry": { "type": "Point", "coordinates": [ 32.5703, 0.2908 ] } },
{ "type": "Feature", "properties": { "Please_spe": "Primary Schools", "Ownership": "Private", "Name_of_in": "Kisugu Primary School", "Contact_nu": 1.000000, "Year_of_op": "2005\/01\/01", "Year": 0, "Govt": 0, "Priv": 1, "Prim": 1, "Sec": 0, "Type": "Schools" }, "geometry": { "type": "Point", "coordinates": [ 32.6113, 0.3046 ] } },
{ "type": "Feature", "properties": { "Please_spe": "Primary Schools", "Ownership": "Private", "Name_of_in": "Treasures Nursery and Primary School Kikaaya", "Contact_nu": 704136917.000000, "Year_of_op": "2015\/02\/02", "Year": 0, "Govt": 0, "Priv": 1, "Prim": 1, "Sec": 0, "Type": "Schools" }, "geometry": { "type": "Point", "coordinates": [ 32.5852, 0.3607 ] } },
{ "type": "Feature", "properties": { "Please_spe": "Primary Schools", "Ownership": "Private", "Name_of_in": "Marvin day & boarding primary school", "Contact_nu": 706429398.000000, "Year_of_op": "2012\/02\/06", "Year": 0, "Govt": 0, "Priv": 1, "Prim": 1, "Sec": 0, "Type": "Schools" }, "geometry": { "type": "Point", "coordinates": [ 32.5365, 0.2987 ] } },
{ "type": "Feature", "properties": { "Please_spe": "Primary Schools", "Ownership": "Private", "Name_of_in": "Divine mission junior school", "Contact_nu": 1.000000, "Year_of_op": "2006\/01\/08", "Year": 0, "Govt": 0, "Priv": 1, "Prim": 1, "Sec": 0, "Type": "Schools" }, "geometry": { "type": "Point", "coordinates": [ 32.5965, 0.2644 ] } },
{ "type": "Feature", "properties": { "Please_spe": "Primary Schools", "Ownership": "Private", "Name_of_in": "Pearl Africa primary school", "Contact_nu": 772809102.000000, "Year_of_op": "2005\/02\/07", "Year": 0, "Govt": 0, "Priv": 1, "Prim": 1, "Sec": 0, "Type": "Schools" }, "geometry": { "type": "Point", "coordinates": [ 32.5981, 0.2974 ] } },
{ "type": "Feature", "properties": { "Please_spe": "Primary Schools", "Ownership": "Private", "Name_of_in": "Excel junior school", "Contact_nu": 774500560.000000, "Year_of_op": "2004\/02\/02", "Year": 0, "Govt": 0, "Priv": 1, "Prim": 1, "Sec": 0, "Type": "Schools" }, "geometry": { "type": "Point", "coordinates": [ 32.5287, 0.297 ] } },
{ "type": "Feature", "properties": { "Please_spe": "Primary Schools", "Ownership": "Private", "Name_of_in": "Nakinyuguzi parents' school", "Contact_nu": 77252916.000000, "Year_of_op": "1988\/01\/09", "Year": 0, "Govt": 0, "Priv": 1, "Prim": 1, "Sec": 0, "Type": "Schools" }, "geometry": { "type": "Point", "coordinates": [ 32.5987, 0.2692 ] } },
{ "type": "Feature", "properties": { "Please_spe": "Primary Schools", "Ownership": "Private", "Name_of_in": "Edmond Nursery and Primary School", "Contact_nu": 772487628.000000, "Year_of_op": "2008\/02\/11", "Year": 0, "Govt": 0, "Priv": 1, "Prim": 1, "Sec": 0, "Type": "Schools" }, "geometry": { "type": "Point", "coordinates": [ 32.5732, 0.379 ] } },
{ "type": "Feature", "properties": { "Please_spe": "Primary Schools", "Ownership": "Private", "Name_of_in": "PRIDE NURSERY AND PRIMARY SCHOOL", "Contact_nu": 705187659.000000, "Year_of_op": "2013\/05\/20", "Year": 0, "Govt": 0, "Priv": 1, "Prim": 1, "Sec": 0, "Type": "Schools" }, "geometry": { "type": "Point", "coordinates": [ 32.5902, 0.2954 ] } },
{ "type": "Feature", "properties": { "Please_spe": "Primary Schools", "Ownership": "Private", "Name_of_in": "Claremont school nursery", "Contact_nu": 775469666.000000, "Year_of_op": "1997\/02\/13", "Year": 0, "Govt": 0, "Priv": 1, "Prim": 1, "Sec": 0, "Type": "Schools" }, "geometry": { "type": "Point", "coordinates": [ 32.6039, 0.3113 ] } },
{ "type": "Feature", "properties": { "Please_spe": "Primary Schools", "Ownership": "Private", "Name_of_in": "Claremont school", "Contact_nu": 1.000000, "Year_of_op": "2013\/02\/13", "Year": 0, "Govt": 0, "Priv": 1, "Prim": 1, "Sec": 0, "Type": "Schools" }, "geometry": { "type": "Point", "coordinates": [ 32.604, 0.3107 ] } },
{ "type": "Feature", "properties": { "Please_spe": "Primary Schools", "Ownership": "Private", "Name_of_in": "New planet primary school", "Contact_nu": 774129554.000000, "Year_of_op": "2011\/01\/13", "Year": 0, "Govt": 0, "Priv": 1, "Prim": 1, "Sec": 0, "Type": "Schools" }, "geometry": { "type": "Point", "coordinates": [ 32.6042, 0.3124 ] } },
{ "type": "Feature", "properties": { "Please_spe": "Primary Schools", "Ownership": "Private", "Name_of_in": "Malaika Junior School Primary", "Contact_nu": 772457976.000000, "Year_of_op": "2007\/02\/26", "Year": 0, "Govt": 0, "Priv": 1, "Prim": 1, "Sec": 0, "Type": "Schools" }, "geometry": { "type": "Point", "coordinates": [ 32.6083, 0.3069 ] } },
{ "type": "Feature", "properties": { "Please_spe": "Primary Schools", "Ownership": "Government Aided", "Name_of_in": "Wandegeya Muslim Primary School", "Contact_nu": 772435013.000000, "Year_of_op": "1950\/01\/15", "Year": 0, "Govt": 1, "Priv": 0, "Prim": 1, "Sec": 0, "Type": "Schools" }, "geometry": { "type": "Point", "coordinates": [ 32.5696, 0.3297 ] } },
{ "type": "Feature", "properties": { "Please_spe": "Primary Schools", "Ownership": "Private", "Name_of_in": "Achievers Junior Day & Boarding School", "Contact_nu": 752585635.000000, "Year_of_op": "2010\/02\/15", "Year": 0, "Govt": 0, "Priv": 1, "Prim": 1, "Sec": 0, "Type": "Schools" }, "geometry": { "type": "Point", "coordinates": [ 32.5682, 0.29 ] } },
{ "type": "Feature", "properties": { "Please_spe": "Primary Schools", "Ownership": "Private", "Name_of_in": "RISE AND SHINE PREPARATORY SCHOOL LUSAZE", "Contact_nu": 772629048.000000, "Year_of_op": "2013\/01\/01", "Year": 0, "Govt": 0, "Priv": 1, "Prim": 1, "Sec": 0, "Type": "Schools" }, "geometry": { "type": "Point", "coordinates": [ 32.5484, 0.3222 ] } },
{ "type": "Feature", "properties": { "Please_spe": "Primary Schools", "Ownership": "Private", "Name_of_in": "Mulago Private Primary School", "Contact_nu": 712800903.000000, "Year_of_op": "1987\/01\/23", "Year": 0, "Govt": 0, "Priv": 1, "Prim": 1, "Sec": 0, "Type": "Schools" }, "geometry": { "type": "Point", "coordinates": [ 32.5746, 0.3456 ] } },
{ "type": "Feature", "properties": { "Please_spe": "Primary Schools", "Ownership": "Private", "Name_of_in": "SKY VIEW JUNIOR SCHOOL", "Contact_nu": 774765504.000000, "Year_of_op": "2003\/01\/01", "Year": 0, "Govt": 0, "Priv": 1, "Prim": 1, "Sec": 0, "Type": "Schools" }, "geometry": { "type": "Point", "coordinates": [ 32.538, 0.3343 ] } },
{ "type": "Feature", "properties": { "Please_spe": "Primary Schools", "Ownership": "Private", "Name_of_in": "City Hill Academy", "Contact_nu": 715533307.000000, "Year_of_op": "2013\/02\/11", "Year": 0, "Govt": 0, "Priv": 1, "Prim": 1, "Sec": 0, "Type": "Schools" }, "geometry": { "type": "Point", "coordinates": [ 32.5969, 0.3642 ] } },
{ "type": "Feature", "properties": { "Please_spe": "Primary Schools", "Ownership": "Government Aided", "Name_of_in": "Mulago School for the Deaf", "Contact_nu": 783151036.000000, "Year_of_op": "1998\/01\/10", "Year": 0, "Govt": 1, "Priv": 0, "Prim": 1, "Sec": 0, "Type": "Schools" }, "geometry": { "type": "Point", "coordinates": [ 32.5741, 0.3455 ] } },
{ "type": "Feature", "properties": { "Please_spe": "Primary Schools", "Ownership": "Private", "Name_of_in": "Biotec primary school", "Contact_nu": 779890327.000000, "Year_of_op": "2009\/02\/20", "Year": 0, "Govt": 0, "Priv": 1, "Prim": 1, "Sec": 0, "Type": "Schools" }, "geometry": { "type": "Point", "coordinates": [ 32.6058, 0.2996 ] } },
{ "type": "Feature", "properties": { "Please_spe": "Primary Schools", "Ownership": "Private", "Name_of_in": "Bright Future Primary School", "Contact_nu": 712804362.000000, "Year_of_op": "2010\/02\/08", "Year": 0, "Govt": 0, "Priv": 1, "Prim": 1, "Sec": 0, "Type": "Schools" }, "geometry": { "type": "Point", "coordinates": [ 32.5389, 0.3054 ] } },
{ "type": "Feature", "properties": { "Please_spe": "Primary Schools", "Ownership": "Private", "Name_of_in": "New Bubajjwe Nursery and primary school", "Contact_nu": 752696612.000000, "Year_of_op": "1994\/02\/14", "Year": 0, "Govt": 0, "Priv": 1, "Prim": 1, "Sec": 0, "Type": "Schools" }, "geometry": { "type": "Point", "coordinates": [ 32.5668, 0.3566 ] } },
{ "type": "Feature", "properties": { "Please_spe": "Primary Schools", "Ownership": "Private", "Name_of_in": "Modern Primary School,Kisasi", "Contact_nu": 781415515.000000, "Year_of_op": "2011\/02\/07", "Year": 0, "Govt": 0, "Priv": 1, "Prim": 1, "Sec": 0, "Type": "Schools" }, "geometry": { "type": "Point", "coordinates": [ 32.5964, 0.3644 ] } },
{ "type": "Feature", "properties": { "Please_spe": "Primary Schools", "Ownership": "Private", "Name_of_in": "Pearl Africa Primary School", "Contact_nu": 130771.000000, "Year_of_op": "2005\/01\/01", "Year": 0, "Govt": 0, "Priv": 1, "Prim": 1, "Sec": 0, "Type": "Schools" }, "geometry": { "type": "Point", "coordinates": [ 32.5992, 0.296 ] } },
{ "type": "Feature", "properties": { "Please_spe": "Primary Schools", "Ownership": "Private", "Name_of_in": "Good Shepherd primary school", "Contact_nu": 755180280.000000, "Year_of_op": "1998\/02\/16", "Year": 0, "Govt": 0, "Priv": 1, "Prim": 1, "Sec": 0, "Type": "Schools" }, "geometry": { "type": "Point", "coordinates": [ 32.5931, 0.2978 ] } },
{ "type": "Feature", "properties": { "Please_spe": "Primary Schools", "Ownership": "Private", "Name_of_in": "warid junior school", "Contact_nu": 703743460.000000, "Year_of_op": "2012\/02\/06", "Year": 0, "Govt": 0, "Priv": 1, "Prim": 1, "Sec": 0, "Type": "Schools" }, "geometry": { "type": "Point", "coordinates": [ 32.5548, 0.3735 ] } },
{ "type": "Feature", "properties": { "Please_spe": "Primary Schools", "Ownership": "Private", "Name_of_in": "NKERE INFANT SCHOOL", "Contact_nu": 414660591.000000, "Year_of_op": "1993\/02\/22", "Year": 0, "Govt": 0, "Priv": 1, "Prim": 1, "Sec": 0, "Type": "Schools" }, "geometry": { "type": "Point", "coordinates": [ 32.5797, 0.2953 ] } },
{ "type": "Feature", "properties": { "Please_spe": "Primary Schools", "Ownership": "Private", "Name_of_in": "Baisha Junior School", "Contact_nu": 752080970.000000, "Year_of_op": "2015\/02\/02", "Year": 0, "Govt": 0, "Priv": 1, "Prim": 1, "Sec": 0, "Type": "Schools" }, "geometry": { "type": "Point", "coordinates": [ 32.5317, 0.2934 ] } },
{ "type": "Feature", "properties": { "Please_spe": "Primary Schools", "Ownership": "Private", "Name_of_in": "Vicross Primary School", "Contact_nu": 772688770.000000, "Year_of_op": "2009\/02\/02", "Year": 0, "Govt": 0, "Priv": 1, "Prim": 1, "Sec": 0, "Type": "Schools" }, "geometry": { "type": "Point", "coordinates": [ 32.5252, 0.3152 ] } },
{ "type": "Feature", "properties": { "Please_spe": "Primary Schools", "Ownership": "Private", "Name_of_in": "MK International School", "Contact_nu": 702780295.000000, "Year_of_op": "2010\/02\/01", "Year": 0, "Govt": 0, "Priv": 1, "Prim": 1, "Sec": 0, "Type": "Schools" }, "geometry": { "type": "Point", "coordinates": [ 32.5233, 0.3087 ] } },
{ "type": "Feature", "properties": { "Please_spe": "Primary Schools", "Ownership": "Private", "Name_of_in": "Gracious Primary Nurs & Day Care Centre", "Contact_nu": 772438883.000000, "Year_of_op": "2003\/02\/03", "Year": 0, "Govt": 0, "Priv": 1, "Prim": 1, "Sec": 0, "Type": "Schools" }, "geometry": { "type": "Point", "coordinates": [ 32.5657, 0.281 ] } },
{ "type": "Feature", "properties": { "Please_spe": "Primary Schools", "Ownership": "Private", "Name_of_in": "prosper nursery and primary school", "Contact_nu": 712943788.000000, "Year_of_op": "1995\/02\/06", "Year": 0, "Govt": 0, "Priv": 1, "Prim": 1, "Sec": 0, "Type": "Schools" }, "geometry": { "type": "Point", "coordinates": [ 32.556, 0.3709 ] } },
{ "type": "Feature", "properties": { "Please_spe": "Primary Schools", "Ownership": "Private", "Name_of_in": "Mayday Junior School Katalemwa", "Contact_nu": 700100000.000000, "Year_of_op": "2010\/02\/08", "Year": 0, "Govt": 0, "Priv": 1, "Prim": 1, "Sec": 0, "Type": "Schools" }, "geometry": { "type": "Point", "coordinates": [ 32.5772, 0.3854 ] } },
{ "type": "Feature", "properties": { "Please_spe": "Primary Schools", "Ownership": "Private", "Name_of_in": "Lungujja Progressive Nursery and Primary School,Kikaaya Branch", "Contact_nu": 701474349.000000, "Year_of_op": "2014\/02\/10", "Year": 0, "Govt": 0, "Priv": 1, "Prim": 1, "Sec": 0, "Type": "Schools" }, "geometry": { "type": "Point", "coordinates": [ 32.5926, 0.3672 ] } },
{ "type": "Feature", "properties": { "Please_spe": "Primary Schools", "Ownership": "Private", "Name_of_in": "KASUBI CHURCH OF GOD NURSERY AND PRIMARY SCHOOL", "Contact_nu": 752962253.000000, "Year_of_op": "1994\/01\/01", "Year": 0, "Govt": 0, "Priv": 1, "Prim": 1, "Sec": 0, "Type": "Schools" }, "geometry": { "type": "Point", "coordinates": [ 32.5538, 0.3265 ] } },